{"type":"FeatureCollection", "features":[
{"type":"Feature","id":19,"geometry":{"type":"Point","coordinates":[121.5297306,25.18258611]},"properties":{"city":"臺北市","longitude":121.5297306,"latitude":25.18258611,"name":"鞍部"}},
{"type":"Feature","id":20,"geometry":{"type":"Point","coordinates":[121.514853,25.037658]},"properties":{"city":"臺北市","longitude":121.514853,"latitude":25.037658,"name":"臺北"}},
{"type":"Feature","id":21,"geometry":{"type":"Point","coordinates":[121.5445472,25.014278]},"properties":{"city":"臺北市","longitude":121.5445472,"latitude":25.014278,"name":"陽明山"}},
{"type":"Feature","id":22,"geometry":{"type":"Point","coordinates":[121.539416,25.014278]},"properties":{"city":"臺北市","longitude":121.539416,"latitude":25.014278,"name":"臺灣大學"}},
{"type":"Feature","id":23,"geometry":{"type":"Point","coordinates":[121.53987,25.13605]},"properties":{"city":"臺北市","longitude":121.53987,"latitude":25.13605,"name":"文化大學"}},
{"type":"Feature","id":24,"geometry":{"type":"Point","coordinates":[121.469681,25.109508]},"properties":{"city":"臺北市","longitude":121.469681,"latitude":25.109508,"name":"社子"}},
{"type":"Feature","id":25,"geometry":{"type":"Point","coordinates":[121.537169,25.117494]},"properties":{"city":"臺北市","longitude":121.537169,"latitude":25.117494,"name":"天母"}},
{"type":"Feature","id":26,"geometry":{"type":"Point","coordinates":[121.503019,25.090253]},"properties":{"city":"臺北市","longitude":121.503019,"latitude":25.090253,"name":"士林"}},
{"type":"Feature","id":27,"geometry":{"type":"Point","coordinates":[121.57545,25.079422]},"properties":{"city":"臺北市","longitude":121.57545,"latitude":25.079422,"name":"內湖"}},
{"type":"Feature","id":28,"geometry":{"type":"Point","coordinates":[121.522408,25.175675]},"properties":{"city":"臺北市","longitude":121.522408,"latitude":25.175675,"name":"大屯山"}},
{"type":"Feature","id":29,"geometry":{"type":"Point","coordinates":[121.564597,25.037822]},"properties":{"city":"臺北市","longitude":121.564597,"latitude":25.037822,"name":"信義"}},
{"type":"Feature","id":30,"geometry":{"type":"Point","coordinates":[121.575728,25.00235]},"properties":{"city":"臺北市","longitude":121.575728,"latitude":25.00235,"name":"文山"}},
{"type":"Feature","id":31,"geometry":{"type":"Point","coordinates":[121.577086,25.129142]},"properties":{"city":"臺北市","longitude":121.577086,"latitude":25.129142,"name":"平等"}},
{"type":"Feature","id":32,"geometry":{"type":"Point","coordinates":[121.550428,25.048711]},"properties":{"city":"臺北市","longitude":121.550428,"latitude":25.048711,"name":"松山"}},
{"type":"Feature","id":33,"geometry":{"type":"Point","coordinates":[121.513139,25.115597]},"properties":{"city":"臺北市","longitude":121.513139,"latitude":25.115597,"name":"石牌"}},
{"type":"Feature","id":34,"geometry":{"type":"Point","coordinates":[121.6158,25.03306]},"properties":{"city":"臺北市","longitude":121.6158,"latitude":25.03306,"name":"國三S016K"}},
{"type":"Feature","id":35,"geometry":{"type":"Point","coordinates":[121.5975,25.00194]},"properties":{"city":"臺北市","longitude":121.5975,"latitude":25.00194,"name":"國三A005K"}},
{"type":"Feature","id":36,"geometry":{"type":"Point","coordinates":[121.53628,25.02955]},"properties":{"city":"臺北市","longitude":121.53628,"latitude":25.02955,"name":"大安森林"}},
{"type":"Feature","id":37,"geometry":{"type":"Point","coordinates":[121.492,25.11575]},"properties":{"city":"臺北市","longitude":121.492,"latitude":25.11575,"name":"台農院關渡站"}},
{"type":"Feature","id":38,"geometry":{"type":"Point","coordinates":[121.740475,25.13331389]},"properties":{"city":"基隆市","longitude":121.740475,"latitude":25.13331389,"name":"基隆"}},
{"type":"Feature","id":39,"geometry":{"type":"Point","coordinates":[122.0797444,25.627975]},"properties":{"city":"基隆市","longitude":122.0797444,"latitude":25.627975,"name":"彭佳嶼"}},
{"type":"Feature","id":40,"geometry":{"type":"Point","coordinates":[121.717128,25.094819]},"properties":{"city":"基隆市","longitude":121.717128,"latitude":25.094819,"name":"七堵"}},
{"type":"Feature","id":41,"geometry":{"type":"Point","coordinates":[121.783914,25.191408]},"properties":{"city":"基隆市","longitude":121.783914,"latitude":25.191408,"name":"基隆嶼"}},
{"type":"Feature","id":42,"geometry":{"type":"Point","coordinates":[121.7286,25.11583]},"properties":{"city":"基隆市","longitude":121.7286,"latitude":25.11583,"name":"國一S001K"}},
{"type":"Feature","id":43,"geometry":{"type":"Point","coordinates":[121.6869,25.08694]},"properties":{"city":"基隆市","longitude":121.6869,"latitude":25.08694,"name":"國一S006K"}},
{"type":"Feature","id":44,"geometry":{"type":"Point","coordinates":[121.6886,25.11444]},"properties":{"city":"基隆市","longitude":121.6886,"latitude":25.11444,"name":"國三S004K"}},
{"type":"Feature","id":45,"geometry":{"type":"Point","coordinates":[121.6678,25.09694]},"properties":{"city":"基隆市","longitude":121.6678,"latitude":25.09694,"name":"國三S007K"}},
{"type":"Feature","id":46,"geometry":{"type":"Point","coordinates":[121.7217,25.14583]},"properties":{"city":"基隆市","longitude":121.7217,"latitude":25.14583,"name":"國三K002K"}},
{"type":"Feature","id":47,"geometry":{"type":"Point","coordinates":[121.4420167,24.99764722]},"properties":{"city":"新北市","longitude":121.4420167,"latitude":24.99764722,"name":"板橋"}},
{"type":"Feature","id":48,"geometry":{"type":"Point","coordinates":[121.4489056,25.16488889]},"properties":{"city":"新北市","longitude":121.4489056,"latitude":25.16488889,"name":"淡水"}},
{"type":"Feature","id":49,"geometry":{"type":"Point","coordinates":[121.386972,24.944503]},"properties":{"city":"新北市","longitude":121.386972,"latitude":24.944503,"name":"桃改臺北"}},
{"type":"Feature","id":50,"geometry":{"type":"Point","coordinates":[121.631222,24.955778]},"properties":{"city":"新北市","longitude":121.631222,"latitude":24.955778,"name":"文山茶改"}},
{"type":"Feature","id":51,"geometry":{"type":"Point","coordinates":[121.525611,24.958167]},"properties":{"city":"新北市","longitude":121.525611,"latitude":24.958167,"name":"新店"}},
{"type":"Feature","id":52,"geometry":{"type":"Point","coordinates":[121.402008,24.974944]},"properties":{"city":"新北市","longitude":121.402008,"latitude":24.974944,"name":"山佳"}},
{"type":"Feature","id":53,"geometry":{"type":"Point","coordinates":[121.70975,24.938183]},"properties":{"city":"新北市","longitude":121.70975,"latitude":24.938183,"name":"坪林"}},
{"type":"Feature","id":54,"geometry":{"type":"Point","coordinates":[121.745736,24.8926]},"properties":{"city":"新北市","longitude":121.745736,"latitude":24.8926,"name":"四堵"}},
{"type":"Feature","id":55,"geometry":{"type":"Point","coordinates":[121.823711,24.971197]},"properties":{"city":"新北市","longitude":121.823711,"latitude":24.971197,"name":"泰平"}},
{"type":"Feature","id":56,"geometry":{"type":"Point","coordinates":[121.502811,24.776203]},"properties":{"city":"新北市","longitude":121.502811,"latitude":24.776203,"name":"福山"}},
{"type":"Feature","id":57,"geometry":{"type":"Point","coordinates":[121.597992,24.848222]},"properties":{"city":"新北市","longitude":121.597992,"latitude":24.848222,"name":"桶後"}},
{"type":"Feature","id":58,"geometry":{"type":"Point","coordinates":[121.662917,24.993969]},"properties":{"city":"新北市","longitude":121.662917,"latitude":24.993969,"name":"石碇"}},
{"type":"Feature","id":59,"geometry":{"type":"Point","coordinates":[121.742892,25.002719]},"properties":{"city":"新北市","longitude":121.742892,"latitude":25.002719,"name":"火燒寮"}},
{"type":"Feature","id":60,"geometry":{"type":"Point","coordinates":[121.801147,25.113169]},"properties":{"city":"新北市","longitude":121.801147,"latitude":25.113169,"name":"瑞芳"}},
{"type":"Feature","id":61,"geometry":{"type":"Point","coordinates":[121.632969,25.165914]},"properties":{"city":"新北市","longitude":121.632969,"latitude":25.165914,"name":"大坪"}},
{"type":"Feature","id":62,"geometry":{"type":"Point","coordinates":[121.608692,25.132153]},"properties":{"city":"新北市","longitude":121.608692,"latitude":25.132153,"name":"五指山"}},
{"type":"Feature","id":63,"geometry":{"type":"Point","coordinates":[121.942083,25.017842]},"properties":{"city":"新北市","longitude":121.942083,"latitude":25.017842,"name":"福隆"}},
{"type":"Feature","id":64,"geometry":{"type":"Point","coordinates":[121.864242,25.036003]},"properties":{"city":"新北市","longitude":121.864242,"latitude":25.036003,"name":"雙溪"}},
{"type":"Feature","id":65,"geometry":{"type":"Point","coordinates":[121.565258,25.263783]},"properties":{"city":"新北市","longitude":121.565258,"latitude":25.263783,"name":"富貴角"}},
{"type":"Feature","id":66,"geometry":{"type":"Point","coordinates":[121.595236,25.233153]},"properties":{"city":"新北市","longitude":121.595236,"latitude":25.233153,"name":"三和"}},
{"type":"Feature","id":67,"geometry":{"type":"Point","coordinates":[121.643967,25.223628]},"properties":{"city":"新北市","longitude":121.643967,"latitude":25.223628,"name":"金山"}},
{"type":"Feature","id":68,"geometry":{"type":"Point","coordinates":[121.923372,25.129036]},"properties":{"city":"新北市","longitude":121.923372,"latitude":25.129036,"name":"鼻頭角"}},
{"type":"Feature","id":69,"geometry":{"type":"Point","coordinates":[122.002058,25.007606]},"properties":{"city":"新北市","longitude":122.002058,"latitude":25.007606,"name":"三貂角"}},
{"type":"Feature","id":70,"geometry":{"type":"Point","coordinates":[121.369728,24.939025]},"properties":{"city":"新北市","longitude":121.369728,"latitude":24.939025,"name":"三峽"}},
{"type":"Feature","id":71,"geometry":{"type":"Point","coordinates":[121.446756,25.051478]},"properties":{"city":"新北市","longitude":121.446756,"latitude":25.051478,"name":"新莊"}},
{"type":"Feature","id":72,"geometry":{"type":"Point","coordinates":[121.501917,25.258131]},"properties":{"city":"新北市","longitude":121.501917,"latitude":25.258131,"name":"三芝"}},
{"type":"Feature","id":73,"geometry":{"type":"Point","coordinates":[121.403947,25.150211]},"properties":{"city":"新北市","longitude":121.403947,"latitude":25.150211,"name":"八里"}},
{"type":"Feature","id":74,"geometry":{"type":"Point","coordinates":[121.472331,25.086594]},"properties":{"city":"新北市","longitude":121.472331,"latitude":25.086594,"name":"蘆洲"}},
{"type":"Feature","id":75,"geometry":{"type":"Point","coordinates":[121.445169,24.973208]},"properties":{"city":"新北市","longitude":121.445169,"latitude":24.973208,"name":"土城"}},
{"type":"Feature","id":76,"geometry":{"type":"Point","coordinates":[121.346294,24.951533]},"properties":{"city":"新北市","longitude":121.346294,"latitude":24.951533,"name":"鶯歌"}},
{"type":"Feature","id":77,"geometry":{"type":"Point","coordinates":[121.490444,24.992647]},"properties":{"city":"新北市","longitude":121.490444,"latitude":24.992647,"name":"中和"}},
{"type":"Feature","id":78,"geometry":{"type":"Point","coordinates":[121.658778,25.066881]},"properties":{"city":"新北市","longitude":121.658778,"latitude":25.066881,"name":"汐止"}},
{"type":"Feature","id":79,"geometry":{"type":"Point","coordinates":[121.508111,25.01125]},"properties":{"city":"新北市","longitude":121.508111,"latitude":25.01125,"name":"永和"}},
{"type":"Feature","id":80,"geometry":{"type":"Point","coordinates":[121.780794,25.07125]},"properties":{"city":"新北市","longitude":121.780794,"latitude":25.07125,"name":"五分山"}},
{"type":"Feature","id":81,"geometry":{"type":"Point","coordinates":[121.380839,25.072181]},"properties":{"city":"新北市","longitude":121.380839,"latitude":25.072181,"name":"林口"}},
{"type":"Feature","id":82,"geometry":{"type":"Point","coordinates":[121.628328,25.002703]},"properties":{"city":"新北市","longitude":121.628328,"latitude":25.002703,"name":"深坑"}},
{"type":"Feature","id":83,"geometry":{"type":"Point","coordinates":[121.58135,24.760717]},"properties":{"city":"新北市","longitude":121.58135,"latitude":24.760717,"name":"福山植物園"}},
{"type":"Feature","id":84,"geometry":{"type":"Point","coordinates":[121.427281,25.074453]},"properties":{"city":"新北市","longitude":121.427281,"latitude":25.074453,"name":"五股"}},
{"type":"Feature","id":85,"geometry":{"type":"Point","coordinates":[121.544725,24.921836]},"properties":{"city":"新北市","longitude":121.544725,"latitude":24.921836,"name":"屈尺"}},
{"type":"Feature","id":86,"geometry":{"type":"Point","coordinates":[121.519058,25.283128]},"properties":{"city":"新北市","longitude":121.519058,"latitude":25.283128,"name":"白沙灣"}},
{"type":"Feature","id":87,"geometry":{"type":"Point","coordinates":[121.500625,25.057378]},"properties":{"city":"新北市","longitude":121.500625,"latitude":25.057378,"name":"三重"}},
{"type":"Feature","id":88,"geometry":{"type":"Point","coordinates":[121.6281,25.06944]},"properties":{"city":"新北市","longitude":121.6281,"latitude":25.06944,"name":"國一N013K"}},
{"type":"Feature","id":89,"geometry":{"type":"Point","coordinates":[121.4964,25.07639]},"properties":{"city":"新北市","longitude":121.4964,"latitude":25.07639,"name":"國一S026K"}},
{"type":"Feature","id":90,"geometry":{"type":"Point","coordinates":[121.6475,25.08]},"properties":{"city":"新北市","longitude":121.6475,"latitude":25.08,"name":"國三S010K"}},
{"type":"Feature","id":91,"geometry":{"type":"Point","coordinates":[121.471,24.9828]},"properties":{"city":"新北市","longitude":121.471,"latitude":24.9828,"name":"國三S037K"}},
{"type":"Feature","id":92,"geometry":{"type":"Point","coordinates":[121.4306,24.96]},"properties":{"city":"新北市","longitude":121.4306,"latitude":24.96,"name":"國三S042K"}},
{"type":"Feature","id":93,"geometry":{"type":"Point","coordinates":[121.3958,24.95083]},"properties":{"city":"新北市","longitude":121.3958,"latitude":24.95083,"name":"國三N046K"}},
{"type":"Feature","id":94,"geometry":{"type":"Point","coordinates":[121.3239,24.93917]},"properties":{"city":"新北市","longitude":121.3239,"latitude":24.93917,"name":"國三S054K"}},
{"type":"Feature","id":95,"geometry":{"type":"Point","coordinates":[121.426369,25.136094]},"properties":{"city":"新北市","longitude":121.426369,"latitude":25.136094,"name":"硬漢嶺"}},
{"type":"Feature","id":96,"geometry":{"type":"Point","coordinates":[121.04748611,25.00674444]},"properties":{"city":"桃園市","longitude":121.04748611,"latitude":25.00674444,"name":"新屋"}},
{"type":"Feature","id":97,"geometry":{"type":"Point","coordinates":[121.030583,24.950944]},"properties":{"city":"桃園市","longitude":121.030583,"latitude":24.950944,"name":"桃園農改"}},
{"type":"Feature","id":98,"geometry":{"type":"Point","coordinates":[121.185333,24.908472]},"properties":{"city":"桃園市","longitude":121.185333,"latitude":24.908472,"name":"茶改場"}},
{"type":"Feature","id":99,"geometry":{"type":"Point","coordinates":[121.185142,24.967708]},"properties":{"city":"桃園市","longitude":121.185142,"latitude":24.967708,"name":"中央大學"}},
{"type":"Feature","id":100,"geometry":{"type":"Point","coordinates":[121.239833,24.985917]},"properties":{"city":"桃園市","longitude":121.239833,"latitude":24.985917,"name":"農工中心"}},
{"type":"Feature","id":101,"geometry":{"type":"Point","coordinates":[121.352281,24.820208]},"properties":{"city":"桃園市","longitude":121.352281,"latitude":24.820208,"name":"復興"}},
{"type":"Feature","id":102,"geometry":{"type":"Point","coordinates":[121.323172,24.992425]},"properties":{"city":"桃園市","longitude":121.323172,"latitude":24.992425,"name":"桃園"}},
{"type":"Feature","id":103,"geometry":{"type":"Point","coordinates":[121.283289,24.928708]},"properties":{"city":"桃園市","longitude":121.283289,"latitude":24.928708,"name":"八德"}},
{"type":"Feature","id":104,"geometry":{"type":"Point","coordinates":[121.225958,25.04775]},"properties":{"city":"桃園市","longitude":121.225958,"latitude":25.04775,"name":"大園"}},
{"type":"Feature","id":105,"geometry":{"type":"Point","coordinates":[121.153317,25.027072]},"properties":{"city":"桃園市","longitude":121.153317,"latitude":25.027072,"name":"觀音"}},
{"type":"Feature","id":106,"geometry":{"type":"Point","coordinates":[121.265767,25.084275]},"properties":{"city":"桃園市","longitude":121.265767,"latitude":25.084275,"name":"蘆竹"}},
{"type":"Feature","id":107,"geometry":{"type":"Point","coordinates":[121.265547,24.882853]},"properties":{"city":"桃園市","longitude":121.265547,"latitude":24.882853,"name":"大溪"}},
{"type":"Feature","id":108,"geometry":{"type":"Point","coordinates":[121.214636,24.897503]},"properties":{"city":"桃園市","longitude":121.214636,"latitude":24.897503,"name":"平鎮"}},
{"type":"Feature","id":109,"geometry":{"type":"Point","coordinates":[121.143047,24.912375]},"properties":{"city":"桃園市","longitude":121.143047,"latitude":24.912375,"name":"楊梅"}},
{"type":"Feature","id":110,"geometry":{"type":"Point","coordinates":[121.221389,24.870056]},"properties":{"city":"桃園市","longitude":121.221389,"latitude":24.870056,"name":"龍潭"}},
{"type":"Feature","id":111,"geometry":{"type":"Point","coordinates":[121.386561,25.028458]},"properties":{"city":"桃園市","longitude":121.386561,"latitude":25.028458,"name":"龜山"}},
{"type":"Feature","id":112,"geometry":{"type":"Point","coordinates":[121.340164,25.063861]},"properties":{"city":"桃園市","longitude":121.340164,"latitude":25.063861,"name":"國一五楊N44K"}},
{"type":"Feature","id":113,"geometry":{"type":"Point","coordinates":[121.256375,24.977661]},"properties":{"city":"桃園市","longitude":121.256375,"latitude":24.977661,"name":"中壢"}},
{"type":"Feature","id":114,"geometry":{"type":"Point","coordinates":[121.324975,24.892936]},"properties":{"city":"桃園市","longitude":121.324975,"latitude":24.892936,"name":"大溪永福"}},
{"type":"Feature","id":115,"geometry":{"type":"Point","coordinates":[121.1342,24.89583]},"properties":{"city":"桃園市","longitude":121.1342,"latitude":24.89583,"name":"國一S072K"}},
{"type":"Feature","id":116,"geometry":{"type":"Point","coordinates":[121.2736,25.02111]},"properties":{"city":"桃園市","longitude":121.2736,"latitude":25.02111,"name":"國二E009K"}},
{"type":"Feature","id":117,"geometry":{"type":"Point","coordinates":[121.26,24.889]},"properties":{"city":"桃園市","longitude":121.26,"latitude":24.889,"name":"國三N063K"}},
{"type":"Feature","id":118,"geometry":{"type":"Point","coordinates":[121.266389,24.93775]},"properties":{"city":"桃園市","longitude":121.266389,"latitude":24.93775,"name":"八德合作社"}},
{"type":"Feature","id":119,"geometry":{"type":"Point","coordinates":[121.281819,24.978508]},"properties":{"city":"桃園市","longitude":121.281819,"latitude":24.978508,"name":"八德蔬果"}},
{"type":"Feature","id":120,"geometry":{"type":"Point","coordinates":[120.905456,24.746892]},"properties":{"city":"新竹市","longitude":120.905456,"latitude":24.746892,"name":"香山"}},
{"type":"Feature","id":121,"geometry":{"type":"Point","coordinates":[120.986942,24.798681]},"properties":{"city":"新竹市","longitude":120.986942,"latitude":24.798681,"name":"新竹市東區"}},
{"type":"Feature","id":122,"geometry":{"type":"Point","coordinates":[121.0089,24.79778]},"properties":{"city":"新竹市","longitude":121.0089,"latitude":24.79778,"name":"國一N094K"}},
{"type":"Feature","id":123,"geometry":{"type":"Point","coordinates":[120.9608,24.75861]},"properties":{"city":"新竹市","longitude":120.9608,"latitude":24.75861,"name":"國三S103K"}},
{"type":"Feature","id":124,"geometry":{"type":"Point","coordinates":[121.0142194,24.82785278]},"properties":{"city":"新竹縣","longitude":121.0142194,"latitude":24.82785278,"name":"新竹"}},
{"type":"Feature","id":125,"geometry":{"type":"Point","coordinates":[121.157167,24.612194]},"properties":{"city":"新竹縣","longitude":121.157167,"latitude":24.612194,"name":"五峰站"}},
{"type":"Feature","id":126,"geometry":{"type":"Point","coordinates":[121.066111,24.834444]},"properties":{"city":"新竹縣","longitude":121.066111,"latitude":24.834444,"name":"新埔工作站"}},
{"type":"Feature","id":127,"geometry":{"type":"Point","coordinates":[121.208558,24.678347]},"properties":{"city":"新竹縣","longitude":121.208558,"latitude":24.678347,"name":"梅花"}},
{"type":"Feature","id":128,"geometry":{"type":"Point","coordinates":[121.173947,24.798228]},"properties":{"city":"新竹縣","longitude":121.173947,"latitude":24.798228,"name":"關西"}},
{"type":"Feature","id":129,"geometry":{"type":"Point","coordinates":[121.017189,24.6905]},"properties":{"city":"新竹縣","longitude":121.017189,"latitude":24.6905,"name":"峨眉"}},
{"type":"Feature","id":130,"geometry":{"type":"Point","coordinates":[121.150789,24.849664]},"properties":{"city":"新竹縣","longitude":121.150789,"latitude":24.849664,"name":"打鐵坑"}},
{"type":"Feature","id":131,"geometry":{"type":"Point","coordinates":[121.116933,24.711158]},"properties":{"city":"新竹縣","longitude":121.116933,"latitude":24.711158,"name":"橫山"}},
{"type":"Feature","id":132,"geometry":{"type":"Point","coordinates":[121.11605,24.526972]},"properties":{"city":"新竹縣","longitude":121.11605,"latitude":24.526972,"name":"雪霸"}},
{"type":"Feature","id":133,"geometry":{"type":"Point","coordinates":[121.057881,24.767147]},"properties":{"city":"新竹縣","longitude":121.057881,"latitude":24.767147,"name":"竹東"}},
{"type":"Feature","id":134,"geometry":{"type":"Point","coordinates":[121.025192,24.735006]},"properties":{"city":"新竹縣","longitude":121.025192,"latitude":24.735006,"name":"寶山"}},
{"type":"Feature","id":135,"geometry":{"type":"Point","coordinates":[120.977211,24.870678]},"properties":{"city":"新竹縣","longitude":120.977211,"latitude":24.870678,"name":"新豐"}},
{"type":"Feature","id":136,"geometry":{"type":"Point","coordinates":[121.043628,24.904794]},"properties":{"city":"新竹縣","longitude":121.043628,"latitude":24.904794,"name":"湖口"}},
{"type":"Feature","id":137,"geometry":{"type":"Point","coordinates":[120.940643,24.726316]},"properties":{"city":"新竹縣","longitude":120.940643,"latitude":24.726316,"name":"國一S105K"}},
{"type":"Feature","id":138,"geometry":{"type":"Point","coordinates":[121.0889,24.885]},"properties":{"city":"新竹縣","longitude":121.0889,"latitude":24.885,"name":"國一N077K"}},
{"type":"Feature","id":139,"geometry":{"type":"Point","coordinates":[121.0467,24.87667]},"properties":{"city":"新竹縣","longitude":121.0467,"latitude":24.87667,"name":"國一S082K"}},
{"type":"Feature","id":140,"geometry":{"type":"Point","coordinates":[121.0214,24.84444]},"properties":{"city":"新竹縣","longitude":121.0214,"latitude":24.84444,"name":"國一S088K"}},
{"type":"Feature","id":141,"geometry":{"type":"Point","coordinates":[120.9911,24.76056]},"properties":{"city":"新竹縣","longitude":120.9911,"latitude":24.76056,"name":"國一S098K"}},
{"type":"Feature","id":142,"geometry":{"type":"Point","coordinates":[121.195738888889,24.8003027777778]},"properties":{"city":"新竹縣","longitude":121.195738889,"latitude":24.8003027778,"name":"國三N076K"}},
{"type":"Feature","id":143,"geometry":{"type":"Point","coordinates":[121.1211,24.78333]},"properties":{"city":"新竹縣","longitude":121.1211,"latitude":24.78333,"name":"國三N085K"}},
{"type":"Feature","id":144,"geometry":{"type":"Point","coordinates":[121.013506,24.425778]},"properties":{"city":"苗栗縣","longitude":121.013506,"latitude":24.425778,"name":"雪見"}},
{"type":"Feature","id":145,"geometry":{"type":"Point","coordinates":[120.770972,24.527806]},"properties":{"city":"苗栗縣","longitude":120.770972,"latitude":24.527806,"name":"新竹畜試"}},
{"type":"Feature","id":146,"geometry":{"type":"Point","coordinates":[120.888897,24.708978]},"properties":{"city":"苗栗縣","longitude":120.888897,"latitude":24.708978,"name":"竹南"}},
{"type":"Feature","id":147,"geometry":{"type":"Point","coordinates":[121.000214,24.601775]},"properties":{"city":"苗栗縣","longitude":121.000214,"latitude":24.601775,"name":"南庄"}},
{"type":"Feature","id":148,"geometry":{"type":"Point","coordinates":[120.870872,24.414939]},"properties":{"city":"苗栗縣","longitude":120.870872,"latitude":24.414939,"name":"大湖"}},
{"type":"Feature","id":149,"geometry":{"type":"Point","coordinates":[120.783933,24.606489]},"properties":{"city":"苗栗縣","longitude":120.783933,"latitude":24.606489,"name":"後龍"}},
{"type":"Feature","id":150,"geometry":{"type":"Point","coordinates":[120.885411,24.583486]},"properties":{"city":"苗栗縣","longitude":120.885411,"latitude":24.583486,"name":"明德"}},
{"type":"Feature","id":151,"geometry":{"type":"Point","coordinates":[120.704622,24.471892]},"properties":{"city":"苗栗縣","longitude":120.704622,"latitude":24.471892,"name":"通霄"}},
{"type":"Feature","id":152,"geometry":{"type":"Point","coordinates":[120.930192,24.451272]},"properties":{"city":"苗栗縣","longitude":120.930192,"latitude":24.451272,"name":"馬都安"}},
{"type":"Feature","id":153,"geometry":{"type":"Point","coordinates":[120.912206,24.688247]},"properties":{"city":"苗栗縣","longitude":120.912206,"latitude":24.688247,"name":"頭份"}},
{"type":"Feature","id":154,"geometry":{"type":"Point","coordinates":[120.864778,24.637056]},"properties":{"city":"苗栗縣","longitude":120.864778,"latitude":24.637056,"name":"造橋"}},
{"type":"Feature","id":155,"geometry":{"type":"Point","coordinates":[120.824575,24.564569]},"properties":{"city":"苗栗縣","longitude":120.824575,"latitude":24.564569,"name":"苗栗"}},
{"type":"Feature","id":156,"geometry":{"type":"Point","coordinates":[120.790853,24.489681]},"properties":{"city":"苗栗縣","longitude":120.790853,"latitude":24.489681,"name":"銅鑼"}},
{"type":"Feature","id":157,"geometry":{"type":"Point","coordinates":[120.824753,24.312764]},"properties":{"city":"苗栗縣","longitude":120.824753,"latitude":24.312764,"name":"卓蘭"}},
{"type":"Feature","id":158,"geometry":{"type":"Point","coordinates":[120.7485,24.562947]},"properties":{"city":"苗栗縣","longitude":120.7485,"latitude":24.562947,"name":"西湖"}},
{"type":"Feature","id":159,"geometry":{"type":"Point","coordinates":[120.920042,24.539133]},"properties":{"city":"苗栗縣","longitude":120.920042,"latitude":24.539133,"name":"獅潭"}},
{"type":"Feature","id":160,"geometry":{"type":"Point","coordinates":[120.653053,24.439714]},"properties":{"city":"苗栗縣","longitude":120.653053,"latitude":24.439714,"name":"苑裡"}},
{"type":"Feature","id":161,"geometry":{"type":"Point","coordinates":[120.948578,24.618069]},"properties":{"city":"苗栗縣","longitude":120.948578,"latitude":24.618069,"name":"大河"}},
{"type":"Feature","id":162,"geometry":{"type":"Point","coordinates":[120.826094,24.60725]},"properties":{"city":"苗栗縣","longitude":120.826094,"latitude":24.60725,"name":"高鐵苗栗"}},
{"type":"Feature","id":163,"geometry":{"type":"Point","coordinates":[120.749819,24.405478]},"properties":{"city":"苗栗縣","longitude":120.749819,"latitude":24.405478,"name":"三義"}},
{"type":"Feature","id":164,"geometry":{"type":"Point","coordinates":[120.783221,24.453119]},"properties":{"city":"苗栗縣","longitude":120.783221,"latitude":24.453119,"name":"國一N142K"}},
{"type":"Feature","id":165,"geometry":{"type":"Point","coordinates":[120.885811,24.668835]},"properties":{"city":"苗栗縣","longitude":120.885811,"latitude":24.668835,"name":"國一S114K"}},
{"type":"Feature","id":166,"geometry":{"type":"Point","coordinates":[120.86071,24.59594]},"properties":{"city":"苗栗縣","longitude":120.86071,"latitude":24.59594,"name":"國一S123K"}},
{"type":"Feature","id":167,"geometry":{"type":"Point","coordinates":[120.820831,24.524506]},"properties":{"city":"苗栗縣","longitude":120.820831,"latitude":24.524506,"name":"國一S132K"}},
{"type":"Feature","id":168,"geometry":{"type":"Point","coordinates":[120.749184,24.375492]},"properties":{"city":"苗栗縣","longitude":120.749184,"latitude":24.375492,"name":"國一S152K"}},
{"type":"Feature","id":169,"geometry":{"type":"Point","coordinates":[120.847389,24.675432]},"properties":{"city":"苗栗縣","longitude":120.847389,"latitude":24.675432,"name":"國三N119K"}},
{"type":"Feature","id":170,"geometry":{"type":"Point","coordinates":[120.681656,24.440218]},"properties":{"city":"苗栗縣","longitude":120.681656,"latitude":24.440218,"name":"國三N151K"}},
{"type":"Feature","id":171,"geometry":{"type":"Point","coordinates":[120.725006,24.522345]},"properties":{"city":"苗栗縣","longitude":120.725006,"latitude":24.522345,"name":"國三S140K"}},
{"type":"Feature","id":172,"geometry":{"type":"Point","coordinates":[120.829111,24.495722]},"properties":{"city":"苗栗縣","longitude":120.829111,"latitude":24.495722,"name":"苗栗農改"}},
{"type":"Feature","id":173,"geometry":{"type":"Point","coordinates":[120.871833,24.422861]},"properties":{"city":"苗栗縣","longitude":120.871833,"latitude":24.422861,"name":"大湖分場"}},
{"type":"Feature","id":174,"geometry":{"type":"Point","coordinates":[119.9234194,26.16926944]},"properties":{"city":"連江縣","longitude":119.9234194,"latitude":26.16926944,"name":"馬祖"}},
{"type":"Feature","id":175,"geometry":{"type":"Point","coordinates":[119.980686,25.965197]},"properties":{"city":"連江縣","longitude":119.980686,"latitude":25.965197,"name":"東莒"}},
{"type":"Feature","id":176,"geometry":{"type":"Point","coordinates":[120.483631,26.358836]},"properties":{"city":"連江縣","longitude":120.483631,"latitude":26.358836,"name":"東引"}},
{"type":"Feature","id":177,"geometry":{"type":"Point","coordinates":[118.2892806,24.40730556]},"properties":{"city":"金門縣","longitude":118.2892806,"latitude":24.40730556,"name":"金門"}},
{"type":"Feature","id":178,"geometry":{"type":"Point","coordinates":[118.433333,24.416667]},"properties":{"city":"金門縣","longitude":118.433333,"latitude":24.416667,"name":"金門東"}},
{"type":"Feature","id":179,"geometry":{"type":"Point","coordinates":[118.26375,24.42572]},"properties":{"city":"金門縣","longitude":118.26375,"latitude":24.42572,"name":"九宮碼頭"}},
{"type":"Feature","id":180,"geometry":{"type":"Point","coordinates":[118.408778,24.488292]},"properties":{"city":"金門縣","longitude":118.408778,"latitude":24.488292,"name":"金沙"}},
{"type":"Feature","id":181,"geometry":{"type":"Point","coordinates":[118.328989,24.457703]},"properties":{"city":"金門縣","longitude":118.328989,"latitude":24.457703,"name":"金寧"}},
{"type":"Feature","id":182,"geometry":{"type":"Point","coordinates":[119.449556,24.9944]},"properties":{"city":"金門縣","longitude":119.449556,"latitude":24.9944,"name":"烏坵"}},
{"type":"Feature","id":183,"geometry":{"type":"Point","coordinates":[119.6674667,23.25695]},"properties":{"city":"澎湖縣","longitude":119.6674667,"latitude":23.25695,"name":"東吉島"}},
{"type":"Feature","id":184,"geometry":{"type":"Point","coordinates":[119.5630944,23.56550278]},"properties":{"city":"澎湖縣","longitude":119.5630944,"latitude":23.56550278,"name":"澎湖"}},
{"type":"Feature","id":185,"geometry":{"type":"Point","coordinates":[119.604189,23.740011]},"properties":{"city":"澎湖縣","longitude":119.604189,"latitude":23.740011,"name":"吉貝"}},
{"type":"Feature","id":186,"geometry":{"type":"Point","coordinates":[119.468436,23.5626]},"properties":{"city":"澎湖縣","longitude":119.468436,"latitude":23.5626,"name":"西嶼"}},
{"type":"Feature","id":187,"geometry":{"type":"Point","coordinates":[119.322761,23.400069]},"properties":{"city":"澎湖縣","longitude":119.322761,"latitude":23.400069,"name":"花嶼"}},
{"type":"Feature","id":188,"geometry":{"type":"Point","coordinates":[120.9037889,22.355675]},"properties":{"city":"臺東縣","longitude":120.9037889,"latitude":22.355675,"name":"大武"}},
{"type":"Feature","id":189,"geometry":{"type":"Point","coordinates":[121.3734278,23.09748611]},"properties":{"city":"臺東縣","longitude":121.3734278,"latitude":23.09748611,"name":"成功"}},
{"type":"Feature","id":190,"geometry":{"type":"Point","coordinates":[121.5583389,22.03696944]},"properties":{"city":"臺東縣","longitude":121.5583389,"latitude":22.03696944,"name":"蘭嶼"}},
{"type":"Feature","id":191,"geometry":{"type":"Point","coordinates":[121.1545861,22.75221111]},"properties":{"city":"臺東縣","longitude":121.1545861,"latitude":22.75221111,"name":"臺東"}},
{"type":"Feature","id":192,"geometry":{"type":"Point","coordinates":[121.077694,22.829528]},"properties":{"city":"臺東縣","longitude":121.077694,"latitude":22.829528,"name":"斑鳩分場"}},
{"type":"Feature","id":193,"geometry":{"type":"Point","coordinates":[121.071278,22.813889]},"properties":{"city":"臺東縣","longitude":121.071278,"latitude":22.813889,"name":"賓朗果園"}},
{"type":"Feature","id":194,"geometry":{"type":"Point","coordinates":[121.130139,22.907694]},"properties":{"city":"臺東縣","longitude":121.130139,"latitude":22.907694,"name":"臺東茶改"}},
{"type":"Feature","id":195,"geometry":{"type":"Point","coordinates":[121.070025,23.150194]},"properties":{"city":"臺東縣","longitude":121.070025,"latitude":23.150194,"name":"下馬"}},
{"type":"Feature","id":196,"geometry":{"type":"Point","coordinates":[120.985328,22.609022]},"properties":{"city":"臺東縣","longitude":120.985328,"latitude":22.609022,"name":"太麻里"}},
{"type":"Feature","id":197,"geometry":{"type":"Point","coordinates":[121.005644,22.684872]},"properties":{"city":"臺東縣","longitude":121.005644,"latitude":22.684872,"name":"知本"}},
{"type":"Feature","id":198,"geometry":{"type":"Point","coordinates":[121.122994,22.917711]},"properties":{"city":"臺東縣","longitude":121.122994,"latitude":22.917711,"name":"鹿野"}},
{"type":"Feature","id":199,"geometry":{"type":"Point","coordinates":[121.475328,22.667203]},"properties":{"city":"臺東縣","longitude":121.475328,"latitude":22.667203,"name":"綠島"}},
{"type":"Feature","id":200,"geometry":{"type":"Point","coordinates":[121.209469,23.119628]},"properties":{"city":"臺東縣","longitude":121.209469,"latitude":23.119628,"name":"池上"}},
{"type":"Feature","id":201,"geometry":{"type":"Point","coordinates":[120.986133,23.248397]},"properties":{"city":"臺東縣","longitude":120.986133,"latitude":23.248397,"name":"向陽"}},
{"type":"Feature","id":202,"geometry":{"type":"Point","coordinates":[121.126219,23.069131]},"properties":{"city":"臺東縣","longitude":121.126219,"latitude":23.069131,"name":"紅石"}},
{"type":"Feature","id":203,"geometry":{"type":"Point","coordinates":[120.943325,22.478475]},"properties":{"city":"臺東縣","longitude":120.943325,"latitude":22.478475,"name":"大溪山"}},
{"type":"Feature","id":204,"geometry":{"type":"Point","coordinates":[120.966875,22.538122]},"properties":{"city":"臺東縣","longitude":120.966875,"latitude":22.538122,"name":"金崙"}},
{"type":"Feature","id":205,"geometry":{"type":"Point","coordinates":[121.303986,22.972672]},"properties":{"city":"臺東縣","longitude":121.303986,"latitude":22.972672,"name":"東河"}},
{"type":"Feature","id":206,"geometry":{"type":"Point","coordinates":[121.411975,23.286817]},"properties":{"city":"臺東縣","longitude":121.411975,"latitude":23.286817,"name":"長濱"}},
{"type":"Feature","id":207,"geometry":{"type":"Point","coordinates":[120.889208,22.279725]},"properties":{"city":"臺東縣","longitude":120.889208,"latitude":22.279725,"name":"南田"}},
{"type":"Feature","id":208,"geometry":{"type":"Point","coordinates":[121.175017,23.0395]},"properties":{"city":"臺東縣","longitude":121.175017,"latitude":23.0395,"name":"關山"}},
{"type":"Feature","id":209,"geometry":{"type":"Point","coordinates":[121.512142,22.049094]},"properties":{"city":"臺東縣","longitude":121.512142,"latitude":22.049094,"name":"蘭嶼高中"}},
{"type":"Feature","id":210,"geometry":{"type":"Point","coordinates":[121.503117,22.081194]},"properties":{"city":"臺東縣","longitude":121.503117,"latitude":22.081194,"name":"蘭嶼燈塔"}},
{"type":"Feature","id":211,"geometry":{"type":"Point","coordinates":[120.960825,22.594789]},"properties":{"city":"臺東縣","longitude":120.960825,"latitude":22.594789,"name":"金峰嘉蘭"}},
{"type":"Feature","id":212,"geometry":{"type":"Point","coordinates":[121.084058,22.902581]},"properties":{"city":"臺東縣","longitude":121.084058,"latitude":22.902581,"name":"延平"}},
{"type":"Feature","id":213,"geometry":{"type":"Point","coordinates":[121.406639,23.223772]},"properties":{"city":"臺東縣","longitude":121.406639,"latitude":23.223772,"name":"石寧山"}},
{"type":"Feature","id":214,"geometry":{"type":"Point","coordinates":[121.229922,22.954453]},"properties":{"city":"臺東縣","longitude":121.229922,"latitude":22.954453,"name":"七塊厝"}},
{"type":"Feature","id":215,"geometry":{"type":"Point","coordinates":[120.993375,22.587569]},"properties":{"city":"臺東縣","longitude":120.993375,"latitude":22.587569,"name":"香蘭"}},
{"type":"Feature","id":216,"geometry":{"type":"Point","coordinates":[120.926942,22.416211]},"properties":{"city":"臺東縣","longitude":120.926942,"latitude":22.416211,"name":"加津林"}},
{"type":"Feature","id":217,"geometry":{"type":"Point","coordinates":[120.8938,22.430439]},"properties":{"city":"臺東縣","longitude":120.8938,"latitude":22.430439,"name":"勝林山"}},
{"type":"Feature","id":218,"geometry":{"type":"Point","coordinates":[120.857372,22.318619]},"properties":{"city":"臺東縣","longitude":120.857372,"latitude":22.318619,"name":"山豬窟"}},
{"type":"Feature","id":219,"geometry":{"type":"Point","coordinates":[120.89185,22.520969]},"properties":{"city":"臺東縣","longitude":120.89185,"latitude":22.520969,"name":"歷坵"}},
{"type":"Feature","id":220,"geometry":{"type":"Point","coordinates":[121.109308,22.810031]},"properties":{"city":"臺東縣","longitude":121.109308,"latitude":22.810031,"name":"檳榔四格山"}},
{"type":"Feature","id":221,"geometry":{"type":"Point","coordinates":[120.959667,22.567419]},"properties":{"city":"臺東縣","longitude":120.959667,"latitude":22.567419,"name":"金崙山"}},
{"type":"Feature","id":222,"geometry":{"type":"Point","coordinates":[121.323642,23.020333]},"properties":{"city":"臺東縣","longitude":121.323642,"latitude":23.020333,"name":"都歷"}},
{"type":"Feature","id":223,"geometry":{"type":"Point","coordinates":[121.156697,22.974361]},"properties":{"city":"臺東縣","longitude":121.156697,"latitude":22.974361,"name":"瑞和"}},
{"type":"Feature","id":224,"geometry":{"type":"Point","coordinates":[121.082664,22.702247]},"properties":{"city":"臺東縣","longitude":121.082664,"latitude":22.702247,"name":"知本水試所"}},
{"type":"Feature","id":225,"geometry":{"type":"Point","coordinates":[120.887572,22.453108]},"properties":{"city":"臺東縣","longitude":120.887572,"latitude":22.453108,"name":"土坂"}},
{"type":"Feature","id":226,"geometry":{"type":"Point","coordinates":[120.823972,22.264347]},"properties":{"city":"臺東縣","longitude":120.823972,"latitude":22.264347,"name":"達仁林場"}},
{"type":"Feature","id":227,"geometry":{"type":"Point","coordinates":[121.383358,23.099575]},"properties":{"city":"臺東縣","longitude":121.383358,"latitude":23.099575,"name":"水試所成功"}},
{"type":"Feature","id":228,"geometry":{"type":"Point","coordinates":[120.989761,22.598014]},"properties":{"city":"臺東縣","longitude":120.989761,"latitude":22.598014,"name":"太麻里2"}},
{"type":"Feature","id":229,"geometry":{"type":"Point","coordinates":[120.980044,22.598922]},"properties":{"city":"臺東縣","longitude":120.980044,"latitude":22.598922,"name":"太麻里1"}},
{"type":"Feature","id":230,"geometry":{"type":"Point","coordinates":[121.613275,23.97512778]},"properties":{"city":"花蓮縣","longitude":121.613275,"latitude":23.97512778,"name":"花蓮"}},
{"type":"Feature","id":231,"geometry":{"type":"Point","coordinates":[121.563889,23.975222]},"properties":{"city":"花蓮縣","longitude":121.563889,"latitude":23.975222,"name":"花蓮農改"}},
{"type":"Feature","id":232,"geometry":{"type":"Point","coordinates":[121.2842306,24.14318611]},"properties":{"city":"花蓮縣","longitude":121.2842306,"latitude":24.14318611,"name":"合歡山"}},
{"type":"Feature","id":233,"geometry":{"type":"Point","coordinates":[121.316086,24.186117]},"properties":{"city":"花蓮縣","longitude":121.316086,"latitude":24.186117,"name":"大禹嶺"}},
{"type":"Feature","id":234,"geometry":{"type":"Point","coordinates":[121.495639,24.179597]},"properties":{"city":"花蓮縣","longitude":121.495639,"latitude":24.179597,"name":"天祥"}},
{"type":"Feature","id":235,"geometry":{"type":"Point","coordinates":[121.508944,23.935639]},"properties":{"city":"花蓮縣","longitude":121.508944,"latitude":23.935639,"name":"鯉魚潭"}},
{"type":"Feature","id":236,"geometry":{"type":"Point","coordinates":[121.441458,23.8119]},"properties":{"city":"花蓮縣","longitude":121.441458,"latitude":23.8119,"name":"西林"}},
{"type":"Feature","id":237,"geometry":{"type":"Point","coordinates":[121.424964,23.660694]},"properties":{"city":"花蓮縣","longitude":121.424964,"latitude":23.660694,"name":"光復"}},
{"type":"Feature","id":238,"geometry":{"type":"Point","coordinates":[121.539828,23.809928]},"properties":{"city":"花蓮縣","longitude":121.539828,"latitude":23.809928,"name":"月眉山"}},
{"type":"Feature","id":239,"geometry":{"type":"Point","coordinates":[121.537169,23.991861]},"properties":{"city":"花蓮縣","longitude":121.537169,"latitude":23.991861,"name":"水源"}},
{"type":"Feature","id":240,"geometry":{"type":"Point","coordinates":[121.581981,23.880628]},"properties":{"city":"花蓮縣","longitude":121.581981,"latitude":23.880628,"name":"大坑"}},
{"type":"Feature","id":241,"geometry":{"type":"Point","coordinates":[121.542514,23.797131]},"properties":{"city":"花蓮縣","longitude":121.542514,"latitude":23.797131,"name":"水璉"}},
{"type":"Feature","id":242,"geometry":{"type":"Point","coordinates":[121.420131,23.735269]},"properties":{"city":"花蓮縣","longitude":121.420131,"latitude":23.735269,"name":"鳳林山"}},
{"type":"Feature","id":243,"geometry":{"type":"Point","coordinates":[121.5274,23.682947]},"properties":{"city":"花蓮縣","longitude":121.5274,"latitude":23.682947,"name":"加路蘭山"}},
{"type":"Feature","id":244,"geometry":{"type":"Point","coordinates":[121.514806,23.583897]},"properties":{"city":"花蓮縣","longitude":121.514806,"latitude":23.583897,"name":"豐濱"}},
{"type":"Feature","id":245,"geometry":{"type":"Point","coordinates":[121.495028,23.455167]},"properties":{"city":"花蓮縣","longitude":121.495028,"latitude":23.455167,"name":"靜浦"}},
{"type":"Feature","id":246,"geometry":{"type":"Point","coordinates":[121.249378,23.171639]},"properties":{"city":"花蓮縣","longitude":121.249378,"latitude":23.171639,"name":"富里"}},
{"type":"Feature","id":247,"geometry":{"type":"Point","coordinates":[121.262342,23.208717]},"properties":{"city":"花蓮縣","longitude":121.262342,"latitude":23.208717,"name":"明里"}},
{"type":"Feature","id":248,"geometry":{"type":"Point","coordinates":[121.213164,23.345667]},"properties":{"city":"花蓮縣","longitude":121.213164,"latitude":23.345667,"name":"佳心"}},
{"type":"Feature","id":249,"geometry":{"type":"Point","coordinates":[121.339656,23.3215]},"properties":{"city":"花蓮縣","longitude":121.339656,"latitude":23.3215,"name":"玉里"}},
{"type":"Feature","id":250,"geometry":{"type":"Point","coordinates":[121.374069,23.468114]},"properties":{"city":"花蓮縣","longitude":121.374069,"latitude":23.468114,"name":"舞鶴"}},
{"type":"Feature","id":251,"geometry":{"type":"Point","coordinates":[121.378225,23.587642]},"properties":{"city":"花蓮縣","longitude":121.378225,"latitude":23.587642,"name":"富源"}},
{"type":"Feature","id":252,"geometry":{"type":"Point","coordinates":[121.549833,23.89525]},"properties":{"city":"花蓮縣","longitude":121.549833,"latitude":23.89525,"name":"東華"}},
{"type":"Feature","id":253,"geometry":{"type":"Point","coordinates":[121.595153,23.930925]},"properties":{"city":"花蓮縣","longitude":121.595153,"latitude":23.930925,"name":"吉安光華"}},
{"type":"Feature","id":254,"geometry":{"type":"Point","coordinates":[121.453411,23.746114]},"properties":{"city":"花蓮縣","longitude":121.453411,"latitude":23.746114,"name":"鳳林"}},
{"type":"Feature","id":255,"geometry":{"type":"Point","coordinates":[121.303303,23.34425]},"properties":{"city":"花蓮縣","longitude":121.303303,"latitude":23.34425,"name":"卓溪"}},
{"type":"Feature","id":256,"geometry":{"type":"Point","coordinates":[121.604539,24.039461]},"properties":{"city":"花蓮縣","longitude":121.604539,"latitude":24.039461,"name":"新城"}},
{"type":"Feature","id":257,"geometry":{"type":"Point","coordinates":[121.629703,24.147433]},"properties":{"city":"花蓮縣","longitude":121.629703,"latitude":24.147433,"name":"富世"}},
{"type":"Feature","id":258,"geometry":{"type":"Point","coordinates":[121.420106,23.709219]},"properties":{"city":"花蓮縣","longitude":121.420106,"latitude":23.709219,"name":"萬榮"}},
{"type":"Feature","id":259,"geometry":{"type":"Point","coordinates":[121.390211,23.5239]},"properties":{"city":"花蓮縣","longitude":121.390211,"latitude":23.5239,"name":"瑞穗"}},
{"type":"Feature","id":260,"geometry":{"type":"Point","coordinates":[121.770069,24.307169]},"properties":{"city":"花蓮縣","longitude":121.770069,"latitude":24.307169,"name":"和平"}},
{"type":"Feature","id":261,"geometry":{"type":"Point","coordinates":[121.306883,23.492842]},"properties":{"city":"花蓮縣","longitude":121.306883,"latitude":23.492842,"name":"瑞穗林道"}},
{"type":"Feature","id":262,"geometry":{"type":"Point","coordinates":[121.540108,23.73835]},"properties":{"city":"花蓮縣","longitude":121.540108,"latitude":23.73835,"name":"蕃薯寮"}},
{"type":"Feature","id":263,"geometry":{"type":"Point","coordinates":[121.410711,23.474264]},"properties":{"city":"花蓮縣","longitude":121.410711,"latitude":23.474264,"name":"德武"}},
{"type":"Feature","id":264,"geometry":{"type":"Point","coordinates":[121.382931,23.368928]},"properties":{"city":"花蓮縣","longitude":121.382931,"latitude":23.368928,"name":"赤柯山"}},
{"type":"Feature","id":265,"geometry":{"type":"Point","coordinates":[121.305469,23.268528]},"properties":{"city":"花蓮縣","longitude":121.305469,"latitude":23.268528,"name":"東里"}},
{"type":"Feature","id":266,"geometry":{"type":"Point","coordinates":[121.689142,24.218294]},"properties":{"city":"花蓮縣","longitude":121.689142,"latitude":24.218294,"name":"清水斷崖"}},
{"type":"Feature","id":267,"geometry":{"type":"Point","coordinates":[121.188272,23.27125]},"properties":{"city":"花蓮縣","longitude":121.188272,"latitude":23.27125,"name":"清水林道"}},
{"type":"Feature","id":268,"geometry":{"type":"Point","coordinates":[121.348528,23.290728]},"properties":{"city":"花蓮縣","longitude":121.348528,"latitude":23.290728,"name":"安通山"}},
{"type":"Feature","id":269,"geometry":{"type":"Point","coordinates":[121.8573722,24.59673611]},"properties":{"city":"宜蘭縣","longitude":121.8573722,"latitude":24.59673611,"name":"蘇澳"}},
{"type":"Feature","id":270,"geometry":{"type":"Point","coordinates":[121.7565278,24.763975]},"properties":{"city":"宜蘭縣","longitude":121.7565278,"latitude":24.763975,"name":"宜蘭"}},
{"type":"Feature","id":271,"geometry":{"type":"Point","coordinates":[121.716583,24.686306]},"properties":{"city":"宜蘭縣","longitude":121.716583,"latitude":24.686306,"name":"蘭陽分場"}},
{"type":"Feature","id":272,"geometry":{"type":"Point","coordinates":[121.832561,24.669039]},"properties":{"city":"宜蘭縣","longitude":121.832561,"latitude":24.669039,"name":"宜蘭畜試"}},
{"type":"Feature","id":273,"geometry":{"type":"Point","coordinates":[121.641303,24.753033]},"properties":{"city":"宜蘭縣","longitude":121.641303,"latitude":24.753033,"name":"雙連埤"}},
{"type":"Feature","id":274,"geometry":{"type":"Point","coordinates":[121.765608,24.817539]},"properties":{"city":"宜蘭縣","longitude":121.765608,"latitude":24.817539,"name":"礁溪"}},
{"type":"Feature","id":275,"geometry":{"type":"Point","coordinates":[121.587061,24.675286]},"properties":{"city":"宜蘭縣","longitude":121.587061,"latitude":24.675286,"name":"玉蘭"}},
{"type":"Feature","id":276,"geometry":{"type":"Point","coordinates":[121.525656,24.505486]},"properties":{"city":"宜蘭縣","longitude":121.525656,"latitude":24.505486,"name":"太平山"}},
{"type":"Feature","id":277,"geometry":{"type":"Point","coordinates":[121.381669,24.437419]},"properties":{"city":"宜蘭縣","longitude":121.381669,"latitude":24.437419,"name":"南山"}},
{"type":"Feature","id":278,"geometry":{"type":"Point","coordinates":[121.953133,24.841667]},"properties":{"city":"宜蘭縣","longitude":121.953133,"latitude":24.841667,"name":"龜山島"}},
{"type":"Feature","id":279,"geometry":{"type":"Point","coordinates":[121.833175,24.521958]},"properties":{"city":"宜蘭縣","longitude":121.833175,"latitude":24.521958,"name":"東澳"}},
{"type":"Feature","id":280,"geometry":{"type":"Point","coordinates":[121.810219,24.449347]},"properties":{"city":"宜蘭縣","longitude":121.810219,"latitude":24.449347,"name":"南澳"}},
{"type":"Feature","id":281,"geometry":{"type":"Point","coordinates":[121.797944,24.686369]},"properties":{"city":"宜蘭縣","longitude":121.797944,"latitude":24.686369,"name":"五結"}},
{"type":"Feature","id":282,"geometry":{"type":"Point","coordinates":[121.830797,24.853233]},"properties":{"city":"宜蘭縣","longitude":121.830797,"latitude":24.853233,"name":"頭城"}},
{"type":"Feature","id":283,"geometry":{"type":"Point","coordinates":[121.675047,24.791042]},"properties":{"city":"宜蘭縣","longitude":121.675047,"latitude":24.791042,"name":"大礁溪"}},
{"type":"Feature","id":284,"geometry":{"type":"Point","coordinates":[121.653017,24.668122]},"properties":{"city":"宜蘭縣","longitude":121.653017,"latitude":24.668122,"name":"三星"}},
{"type":"Feature","id":285,"geometry":{"type":"Point","coordinates":[121.687664,24.718133]},"properties":{"city":"宜蘭縣","longitude":121.687664,"latitude":24.718133,"name":"內城"}},
{"type":"Feature","id":286,"geometry":{"type":"Point","coordinates":[121.793697,24.633725]},"properties":{"city":"宜蘭縣","longitude":121.793697,"latitude":24.633725,"name":"冬山"}},
{"type":"Feature","id":287,"geometry":{"type":"Point","coordinates":[121.749344,24.681836]},"properties":{"city":"宜蘭縣","longitude":121.749344,"latitude":24.681836,"name":"羅東"}},
{"type":"Feature","id":288,"geometry":{"type":"Point","coordinates":[121.792444,24.897536]},"properties":{"city":"宜蘭縣","longitude":121.792444,"latitude":24.897536,"name":"鶯子嶺"}},
{"type":"Feature","id":289,"geometry":{"type":"Point","coordinates":[121.608044,24.510856]},"properties":{"city":"宜蘭縣","longitude":121.608044,"latitude":24.510856,"name":"翠峰湖"}},
{"type":"Feature","id":290,"geometry":{"type":"Point","coordinates":[121.813892,24.800636]},"properties":{"city":"宜蘭縣","longitude":121.813892,"latitude":24.800636,"name":"大福"}},
{"type":"Feature","id":291,"geometry":{"type":"Point","coordinates":[121.773961,24.864781]},"properties":{"city":"宜蘭縣","longitude":121.773961,"latitude":24.864781,"name":"坪林石牌"}},
{"type":"Feature","id":292,"geometry":{"type":"Point","coordinates":[121.722472,24.74435]},"properties":{"city":"宜蘭縣","longitude":121.722472,"latitude":24.74435,"name":"員山"}},
{"type":"Feature","id":293,"geometry":{"type":"Point","coordinates":[121.495333,24.576533]},"properties":{"city":"宜蘭縣","longitude":121.495333,"latitude":24.576533,"name":"土場"}},
{"type":"Feature","id":294,"geometry":{"type":"Point","coordinates":[121.412228,24.590269]},"properties":{"city":"宜蘭縣","longitude":121.412228,"latitude":24.590269,"name":"鴛鴦湖"}},
{"type":"Feature","id":295,"geometry":{"type":"Point","coordinates":[121.373189,24.368614]},"properties":{"city":"宜蘭縣","longitude":121.373189,"latitude":24.368614,"name":"多加屯"}},
{"type":"Feature","id":296,"geometry":{"type":"Point","coordinates":[121.519031,24.527819]},"properties":{"city":"宜蘭縣","longitude":121.519031,"latitude":24.527819,"name":"白嶺"}},
{"type":"Feature","id":297,"geometry":{"type":"Point","coordinates":[121.752608,24.560647]},"properties":{"city":"宜蘭縣","longitude":121.752608,"latitude":24.560647,"name":"西德山"}},
{"type":"Feature","id":298,"geometry":{"type":"Point","coordinates":[121.802628,24.555361]},"properties":{"city":"宜蘭縣","longitude":121.802628,"latitude":24.555361,"name":"西帽山"}},
{"type":"Feature","id":299,"geometry":{"type":"Point","coordinates":[121.783247,24.413925]},"properties":{"city":"宜蘭縣","longitude":121.783247,"latitude":24.413925,"name":"樟樹山"}},
{"type":"Feature","id":300,"geometry":{"type":"Point","coordinates":[121.888875,24.962606]},"properties":{"city":"宜蘭縣","longitude":121.888875,"latitude":24.962606,"name":"桃源谷"}},
{"type":"Feature","id":301,"geometry":{"type":"Point","coordinates":[120.466058,22.479997]},"properties":{"city":"屏東縣","longitude":120.466058,"latitude":22.479997,"name":"東港工作站"}},
{"type":"Feature","id":302,"geometry":{"type":"Point","coordinates":[120.714425,22.079678]},"properties":{"city":"屏東縣","longitude":120.714425,"latitude":22.079678,"name":"恆春工作站"}},
{"type":"Feature","id":303,"geometry":{"type":"Point","coordinates":[120.7463389,22.00389722]},"properties":{"city":"屏東縣","longitude":120.7463389,"latitude":22.00389722,"name":"恆春"}},
{"type":"Feature","id":304,"geometry":{"type":"Point","coordinates":[120.525889,22.709333]},"properties":{"city":"屏東縣","longitude":120.525889,"latitude":22.709333,"name":"高雄農改"}},
{"type":"Feature","id":305,"geometry":{"type":"Point","coordinates":[120.802167,21.945583]},"properties":{"city":"屏東縣","longitude":120.802167,"latitude":21.945583,"name":"恆春畜試"}},
{"type":"Feature","id":306,"geometry":{"type":"Point","coordinates":[120.683889,22.833111]},"properties":{"city":"屏東縣","longitude":120.683889,"latitude":22.833111,"name":"尾寮山"}},
{"type":"Feature","id":307,"geometry":{"type":"Point","coordinates":[120.743678,22.742908]},"properties":{"city":"屏東縣","longitude":120.743678,"latitude":22.742908,"name":"阿禮"}},
{"type":"Feature","id":308,"geometry":{"type":"Point","coordinates":[120.686639,22.682903]},"properties":{"city":"屏東縣","longitude":120.686639,"latitude":22.682903,"name":"瑪家"}},
{"type":"Feature","id":309,"geometry":{"type":"Point","coordinates":[120.639944,22.709889]},"properties":{"city":"屏東縣","longitude":120.639944,"latitude":22.709889,"name":"三地門"}},
{"type":"Feature","id":310,"geometry":{"type":"Point","coordinates":[120.530778,22.739558]},"properties":{"city":"屏東縣","longitude":120.530778,"latitude":22.739558,"name":"鹽埔"}},
{"type":"Feature","id":311,"geometry":{"type":"Point","coordinates":[120.494072,22.660269]},"properties":{"city":"屏東縣","longitude":120.494072,"latitude":22.660269,"name":"屏東"}},
{"type":"Feature","id":312,"geometry":{"type":"Point","coordinates":[120.614306,22.592333]},"properties":{"city":"屏東縣","longitude":120.614306,"latitude":22.592333,"name":"赤山"}},
{"type":"Feature","id":313,"geometry":{"type":"Point","coordinates":[120.54,22.534361]},"properties":{"city":"屏東縣","longitude":120.54,"latitude":22.534361,"name":"潮州"}},
{"type":"Feature","id":314,"geometry":{"type":"Point","coordinates":[120.625111,22.527306]},"properties":{"city":"屏東縣","longitude":120.625111,"latitude":22.527306,"name":"來義"}},
{"type":"Feature","id":315,"geometry":{"type":"Point","coordinates":[120.628306,22.370361]},"properties":{"city":"屏東縣","longitude":120.628306,"latitude":22.370361,"name":"春日"}},
{"type":"Feature","id":316,"geometry":{"type":"Point","coordinates":[120.362236,22.332244]},"properties":{"city":"屏東縣","longitude":120.362236,"latitude":22.332244,"name":"琉球嶼"}},
{"type":"Feature","id":317,"geometry":{"type":"Point","coordinates":[120.836794,22.076075]},"properties":{"city":"屏東縣","longitude":120.836794,"latitude":22.076075,"name":"檳榔"}},
{"type":"Feature","id":318,"geometry":{"type":"Point","coordinates":[120.716247,22.0744]},"properties":{"city":"屏東縣","longitude":120.716247,"latitude":22.0744,"name":"車城"}},
{"type":"Feature","id":319,"geometry":{"type":"Point","coordinates":[120.792639,22.130036]},"properties":{"city":"屏東縣","longitude":120.792639,"latitude":22.130036,"name":"牡丹"}},
{"type":"Feature","id":320,"geometry":{"type":"Point","coordinates":[120.735817,21.921689]},"properties":{"city":"屏東縣","longitude":120.735817,"latitude":21.921689,"name":"貓鼻頭"}},
{"type":"Feature","id":321,"geometry":{"type":"Point","coordinates":[120.753181,22.405264]},"properties":{"city":"屏東縣","longitude":120.753181,"latitude":22.405264,"name":"大漢山"}},
{"type":"Feature","id":322,"geometry":{"type":"Point","coordinates":[120.600806,22.826389]},"properties":{"city":"屏東縣","longitude":120.600806,"latitude":22.826389,"name":"高樹"}},
{"type":"Feature","id":323,"geometry":{"type":"Point","coordinates":[120.542622,22.693128]},"properties":{"city":"屏東縣","longitude":120.542622,"latitude":22.693128,"name":"長治"}},
{"type":"Feature","id":324,"geometry":{"type":"Point","coordinates":[120.490503,22.7405]},"properties":{"city":"屏東縣","longitude":120.490503,"latitude":22.7405,"name":"九如"}},
{"type":"Feature","id":325,"geometry":{"type":"Point","coordinates":[120.490394,22.587775]},"properties":{"city":"屏東縣","longitude":120.490394,"latitude":22.587775,"name":"萬丹"}},
{"type":"Feature","id":326,"geometry":{"type":"Point","coordinates":[120.506914,22.514781]},"properties":{"city":"屏東縣","longitude":120.506914,"latitude":22.514781,"name":"崁頂"}},
{"type":"Feature","id":327,"geometry":{"type":"Point","coordinates":[120.509983,22.430836]},"properties":{"city":"屏東縣","longitude":120.509983,"latitude":22.430836,"name":"林邊"}},
{"type":"Feature","id":328,"geometry":{"type":"Point","coordinates":[120.552375,22.419456]},"properties":{"city":"屏東縣","longitude":120.552375,"latitude":22.419456,"name":"佳冬"}},
{"type":"Feature","id":329,"geometry":{"type":"Point","coordinates":[120.582894,22.467947]},"properties":{"city":"屏東縣","longitude":120.582894,"latitude":22.467947,"name":"新埤"}},
{"type":"Feature","id":330,"geometry":{"type":"Point","coordinates":[120.461558,22.5434]},"properties":{"city":"屏東縣","longitude":120.461558,"latitude":22.5434,"name":"新園"}},
{"type":"Feature","id":331,"geometry":{"type":"Point","coordinates":[120.527192,22.650775]},"properties":{"city":"屏東縣","longitude":120.527192,"latitude":22.650775,"name":"麟洛"}},
{"type":"Feature","id":332,"geometry":{"type":"Point","coordinates":[120.502736,22.485911]},"properties":{"city":"屏東縣","longitude":120.502736,"latitude":22.485911,"name":"南州"}},
{"type":"Feature","id":333,"geometry":{"type":"Point","coordinates":[120.494589,22.779194]},"properties":{"city":"屏東縣","longitude":120.494589,"latitude":22.779194,"name":"里港"}},
{"type":"Feature","id":334,"geometry":{"type":"Point","coordinates":[120.664944,22.588194]},"properties":{"city":"屏東縣","longitude":120.664944,"latitude":22.588194,"name":"舊泰武"}},
{"type":"Feature","id":335,"geometry":{"type":"Point","coordinates":[120.855269,21.900836]},"properties":{"city":"屏東縣","longitude":120.855269,"latitude":21.900836,"name":"墾雷"}},
{"type":"Feature","id":336,"geometry":{"type":"Point","coordinates":[120.440744,22.462467]},"properties":{"city":"屏東縣","longitude":120.440744,"latitude":22.462467,"name":"東港"}},
{"type":"Feature","id":337,"geometry":{"type":"Point","coordinates":[120.543442,22.584861]},"properties":{"city":"屏東縣","longitude":120.543442,"latitude":22.584861,"name":"竹田"}},
{"type":"Feature","id":338,"geometry":{"type":"Point","coordinates":[120.590647,22.367722]},"properties":{"city":"屏東縣","longitude":120.590647,"latitude":22.367722,"name":"枋寮"}},
{"type":"Feature","id":339,"geometry":{"type":"Point","coordinates":[120.692156,22.190131]},"properties":{"city":"屏東縣","longitude":120.692156,"latitude":22.190131,"name":"楓港"}},
{"type":"Feature","id":340,"geometry":{"type":"Point","coordinates":[120.861633,21.993578]},"properties":{"city":"屏東縣","longitude":120.861633,"latitude":21.993578,"name":"佳樂水"}},
{"type":"Feature","id":341,"geometry":{"type":"Point","coordinates":[120.810269,21.966756]},"properties":{"city":"屏東縣","longitude":120.810269,"latitude":21.966756,"name":"墾丁"}},
{"type":"Feature","id":342,"geometry":{"type":"Point","coordinates":[120.661086,22.246844]},"properties":{"city":"屏東縣","longitude":120.661086,"latitude":22.246844,"name":"枋山"}},
{"type":"Feature","id":343,"geometry":{"type":"Point","coordinates":[120.838942,21.931672]},"properties":{"city":"屏東縣","longitude":120.838942,"latitude":21.931672,"name":"龍磐"}},
{"type":"Feature","id":344,"geometry":{"type":"Point","coordinates":[120.887614,22.205403]},"properties":{"city":"屏東縣","longitude":120.887614,"latitude":22.205403,"name":"旭海"}},
{"type":"Feature","id":345,"geometry":{"type":"Point","coordinates":[120.69355,22.024633]},"properties":{"city":"屏東縣","longitude":120.69355,"latitude":22.024633,"name":"大坪頂"}},
{"type":"Feature","id":346,"geometry":{"type":"Point","coordinates":[120.70525,22.201569]},"properties":{"city":"屏東縣","longitude":120.70525,"latitude":22.201569,"name":"獅子"}},
{"type":"Feature","id":347,"geometry":{"type":"Point","coordinates":[120.802439,22.076989]},"properties":{"city":"屏東縣","longitude":120.802439,"latitude":22.076989,"name":"四林格山"}},
{"type":"Feature","id":348,"geometry":{"type":"Point","coordinates":[120.863353,22.084681]},"properties":{"city":"屏東縣","longitude":120.863353,"latitude":22.084681,"name":"南仁湖"}},
{"type":"Feature","id":349,"geometry":{"type":"Point","coordinates":[120.764111,22.071122]},"properties":{"city":"屏東縣","longitude":120.764111,"latitude":22.071122,"name":"保力"}},
{"type":"Feature","id":350,"geometry":{"type":"Point","coordinates":[120.839892,22.024403]},"properties":{"city":"屏東縣","longitude":120.839892,"latitude":22.024403,"name":"滿州"}},
{"type":"Feature","id":351,"geometry":{"type":"Point","coordinates":[120.894356,22.142069]},"properties":{"city":"屏東縣","longitude":120.894356,"latitude":22.142069,"name":"九棚"}},
{"type":"Feature","id":352,"geometry":{"type":"Point","coordinates":[120.750989,22.204481]},"properties":{"city":"屏東縣","longitude":120.750989,"latitude":22.204481,"name":"丹路"}},
{"type":"Feature","id":353,"geometry":{"type":"Point","coordinates":[120.642986,22.305064]},"properties":{"city":"屏東縣","longitude":120.642986,"latitude":22.305064,"name":"內獅"}},
{"type":"Feature","id":354,"geometry":{"type":"Point","coordinates":[120.666219,22.454275]},"properties":{"city":"屏東縣","longitude":120.666219,"latitude":22.454275,"name":"白鷺"}},
{"type":"Feature","id":355,"geometry":{"type":"Point","coordinates":[120.836781,22.121825]},"properties":{"city":"屏東縣","longitude":120.836781,"latitude":22.121825,"name":"高士"}},
{"type":"Feature","id":356,"geometry":{"type":"Point","coordinates":[120.841225,22.168389]},"properties":{"city":"屏東縣","longitude":120.841225,"latitude":22.168389,"name":"牡丹池山"}},
{"type":"Feature","id":357,"geometry":{"type":"Point","coordinates":[120.3157333,22.56599167]},"properties":{"city":"高雄市","longitude":120.3157333,"latitude":22.56599167,"name":"高雄"}},
{"type":"Feature","id":358,"geometry":{"type":"Point","coordinates":[116.73,20.700856]},"properties":{"city":"高雄市","longitude":116.73,"latitude":20.700856,"name":"東沙島"}},
{"type":"Feature","id":359,"geometry":{"type":"Point","coordinates":[114.364286,10.370203]},"properties":{"city":"高雄市","longitude":114.364286,"latitude":10.370203,"name":"南沙島"}},
{"type":"Feature","id":360,"geometry":{"type":"Point","coordinates":[120.516667,22.857861]},"properties":{"city":"高雄市","longitude":120.516667,"latitude":22.857861,"name":"旗南農改"}},
{"type":"Feature","id":361,"geometry":{"type":"Point","coordinates":[120.806089,23.222403]},"properties":{"city":"高雄市","longitude":120.806089,"latitude":23.222403,"name":"復興"}},
{"type":"Feature","id":362,"geometry":{"type":"Point","coordinates":[120.591758,23.080106]},"properties":{"city":"高雄市","longitude":120.591758,"latitude":23.080106,"name":"甲仙"}},
{"type":"Feature","id":363,"geometry":{"type":"Point","coordinates":[120.539853,22.971003]},"properties":{"city":"高雄市","longitude":120.539853,"latitude":22.971003,"name":"月眉"}},
{"type":"Feature","id":364,"geometry":{"type":"Point","coordinates":[120.519153,22.898742]},"properties":{"city":"高雄市","longitude":120.519153,"latitude":22.898742,"name":"美濃"}},
{"type":"Feature","id":365,"geometry":{"type":"Point","coordinates":[120.446797,22.738578]},"properties":{"city":"高雄市","longitude":120.446797,"latitude":22.738578,"name":"溪埔"}},
{"type":"Feature","id":366,"geometry":{"type":"Point","coordinates":[120.466769,22.975481]},"properties":{"city":"高雄市","longitude":120.466769,"latitude":22.975481,"name":"內門"}},
{"type":"Feature","id":367,"geometry":{"type":"Point","coordinates":[120.401947,22.893178]},"properties":{"city":"高雄市","longitude":120.401947,"latitude":22.893178,"name":"古亭坑"}},
{"type":"Feature","id":368,"geometry":{"type":"Point","coordinates":[120.355528,22.804194]},"properties":{"city":"高雄市","longitude":120.355528,"latitude":22.804194,"name":"阿公店"}},
{"type":"Feature","id":369,"geometry":{"type":"Point","coordinates":[120.356122,22.646653]},"properties":{"city":"高雄市","longitude":120.356122,"latitude":22.646653,"name":"鳳山"}},
{"type":"Feature","id":370,"geometry":{"type":"Point","coordinates":[120.392592,22.545064]},"properties":{"city":"高雄市","longitude":120.392592,"latitude":22.545064,"name":"鳳森"}},
{"type":"Feature","id":371,"geometry":{"type":"Point","coordinates":[120.298803,22.627422]},"properties":{"city":"高雄市","longitude":120.298803,"latitude":22.627422,"name":"新興"}},
{"type":"Feature","id":372,"geometry":{"type":"Point","coordinates":[120.285944,22.5886]},"properties":{"city":"高雄市","longitude":120.285944,"latitude":22.5886,"name":"旗津"}},
{"type":"Feature","id":373,"geometry":{"type":"Point","coordinates":[120.327508,22.883208]},"properties":{"city":"高雄市","longitude":120.327508,"latitude":22.883208,"name":"阿蓮"}},
{"type":"Feature","id":374,"geometry":{"type":"Point","coordinates":[120.267211,22.760558]},"properties":{"city":"高雄市","longitude":120.267211,"latitude":22.760558,"name":"梓官"}},
{"type":"Feature","id":375,"geometry":{"type":"Point","coordinates":[120.236856,22.82315]},"properties":{"city":"高雄市","longitude":120.236856,"latitude":22.82315,"name":"永安"}},
{"type":"Feature","id":376,"geometry":{"type":"Point","coordinates":[120.182608,22.906642]},"properties":{"city":"高雄市","longitude":120.182608,"latitude":22.906642,"name":"茄萣"}},
{"type":"Feature","id":377,"geometry":{"type":"Point","coordinates":[120.2445,22.887139]},"properties":{"city":"高雄市","longitude":120.2445,"latitude":22.887139,"name":"湖內"}},
{"type":"Feature","id":378,"geometry":{"type":"Point","coordinates":[120.246361,22.783806]},"properties":{"city":"高雄市","longitude":120.246361,"latitude":22.783806,"name":"彌陀"}},
{"type":"Feature","id":379,"geometry":{"type":"Point","coordinates":[120.294958,22.797078]},"properties":{"city":"高雄市","longitude":120.294958,"latitude":22.797078,"name":"岡山"}},
{"type":"Feature","id":380,"geometry":{"type":"Point","coordinates":[120.286,22.71975]},"properties":{"city":"高雄市","longitude":120.286,"latitude":22.71975,"name":"楠梓"}},
{"type":"Feature","id":381,"geometry":{"type":"Point","coordinates":[120.347722,22.701083]},"properties":{"city":"高雄市","longitude":120.347722,"latitude":22.701083,"name":"仁武"}},
{"type":"Feature","id":382,"geometry":{"type":"Point","coordinates":[120.275575,22.623325]},"properties":{"city":"高雄市","longitude":120.275575,"latitude":22.623325,"name":"鼓山"}},
{"type":"Feature","id":383,"geometry":{"type":"Point","coordinates":[120.311233,22.645017]},"properties":{"city":"高雄市","longitude":120.311233,"latitude":22.645017,"name":"三民"}},
{"type":"Feature","id":384,"geometry":{"type":"Point","coordinates":[120.330669,22.622742]},"properties":{"city":"高雄市","longitude":120.330669,"latitude":22.622742,"name":"苓雅"}},
{"type":"Feature","id":385,"geometry":{"type":"Point","coordinates":[120.394511,22.507747]},"properties":{"city":"高雄市","longitude":120.394511,"latitude":22.507747,"name":"林園"}},
{"type":"Feature","id":386,"geometry":{"type":"Point","coordinates":[120.395717,22.605614]},"properties":{"city":"高雄市","longitude":120.395717,"latitude":22.605614,"name":"大寮"}},
{"type":"Feature","id":387,"geometry":{"type":"Point","coordinates":[120.483597,22.888614]},"properties":{"city":"高雄市","longitude":120.483597,"latitude":22.888614,"name":"旗山"}},
{"type":"Feature","id":388,"geometry":{"type":"Point","coordinates":[120.259439,22.854997]},"properties":{"city":"高雄市","longitude":120.259439,"latitude":22.854997,"name":"路竹"}},
{"type":"Feature","id":389,"geometry":{"type":"Point","coordinates":[120.30575,22.757806]},"properties":{"city":"高雄市","longitude":120.30575,"latitude":22.757806,"name":"橋頭"}},
{"type":"Feature","id":390,"geometry":{"type":"Point","coordinates":[120.346639,22.730306]},"properties":{"city":"高雄市","longitude":120.346639,"latitude":22.730306,"name":"大社"}},
{"type":"Feature","id":391,"geometry":{"type":"Point","coordinates":[120.688056,22.905944]},"properties":{"city":"高雄市","longitude":120.688056,"latitude":22.905944,"name":"萬山"}},
{"type":"Feature","id":392,"geometry":{"type":"Point","coordinates":[120.633583,22.997889]},"properties":{"city":"高雄市","longitude":120.633583,"latitude":22.997889,"name":"六龜"}},
{"type":"Feature","id":393,"geometry":{"type":"Point","coordinates":[120.284911,22.674911]},"properties":{"city":"高雄市","longitude":120.284911,"latitude":22.674911,"name":"左營"}},
{"type":"Feature","id":394,"geometry":{"type":"Point","coordinates":[120.63325,23.148408]},"properties":{"city":"高雄市","longitude":120.63325,"latitude":23.148408,"name":"小林"}},
{"type":"Feature","id":395,"geometry":{"type":"Point","coordinates":[120.664108,22.888558]},"properties":{"city":"高雄市","longitude":120.664108,"latitude":22.888558,"name":"茂林"}},
{"type":"Feature","id":396,"geometry":{"type":"Point","coordinates":[120.645722,22.991703]},"properties":{"city":"高雄市","longitude":120.645722,"latitude":22.991703,"name":"六龜林試"}},
{"type":"Feature","id":397,"geometry":{"type":"Point","coordinates":[120.685703,22.9677]},"properties":{"city":"高雄市","longitude":120.685703,"latitude":22.9677,"name":"扇平林試"}},
{"type":"Feature","id":398,"geometry":{"type":"Point","coordinates":[120.356083,22.646611]},"properties":{"city":"高雄市","longitude":120.356083,"latitude":22.646611,"name":"鳳山農試"}},
{"type":"Feature","id":399,"geometry":{"type":"Point","coordinates":[120.170806,23.23325]},"properties":{"city":"臺南市","longitude":120.170806,"latitude":23.23325,"name":"嘉南水利"}},
{"type":"Feature","id":400,"geometry":{"type":"Point","coordinates":[120.2047722,22.99323889]},"properties":{"city":"臺南市","longitude":120.2047722,"latitude":22.99323889,"name":"臺南"}},
{"type":"Feature","id":401,"geometry":{"type":"Point","coordinates":[120.2367,23.03838611]},"properties":{"city":"臺南市","longitude":120.2367,"latitude":23.03838611,"name":"永康"}},
{"type":"Feature","id":402,"geometry":{"type":"Point","coordinates":[120.342194,23.0605]},"properties":{"city":"臺南市","longitude":120.342194,"latitude":23.0605,"name":"臺南農改"}},
{"type":"Feature","id":403,"geometry":{"type":"Point","coordinates":[120.062894,23.081672]},"properties":{"city":"臺南市","longitude":120.062894,"latitude":23.081672,"name":"七股研究中心"}},
{"type":"Feature","id":404,"geometry":{"type":"Point","coordinates":[120.379661,23.340258]},"properties":{"city":"臺南市","longitude":120.379661,"latitude":23.340258,"name":"蘭花園區"}},
{"type":"Feature","id":405,"geometry":{"type":"Point","coordinates":[120.336406,23.058972]},"properties":{"city":"臺南市","longitude":120.336406,"latitude":23.058972,"name":"畜試所"}},
{"type":"Feature","id":406,"geometry":{"type":"Point","coordinates":[120.497328,23.219681]},"properties":{"city":"臺南市","longitude":120.497328,"latitude":23.219681,"name":"曾文"}},
{"type":"Feature","id":407,"geometry":{"type":"Point","coordinates":[120.495008,23.079561]},"properties":{"city":"臺南市","longitude":120.495008,"latitude":23.079561,"name":"北寮"}},
{"type":"Feature","id":408,"geometry":{"type":"Point","coordinates":[120.40085,23.222064]},"properties":{"city":"臺南市","longitude":120.40085,"latitude":23.222064,"name":"王爺宮"}},
{"type":"Feature","id":409,"geometry":{"type":"Point","coordinates":[120.360833,23.118847]},"properties":{"city":"臺南市","longitude":120.360833,"latitude":23.118847,"name":"大內"}},
{"type":"Feature","id":410,"geometry":{"type":"Point","coordinates":[120.297219,23.112883]},"properties":{"city":"臺南市","longitude":120.297219,"latitude":23.112883,"name":"善化"}},
{"type":"Feature","id":411,"geometry":{"type":"Point","coordinates":[120.46055,23.126042]},"properties":{"city":"臺南市","longitude":120.46055,"latitude":23.126042,"name":"玉井"}},
{"type":"Feature","id":412,"geometry":{"type":"Point","coordinates":[120.144861,23.076694]},"properties":{"city":"臺南市","longitude":120.144861,"latitude":23.076694,"name":"安南"}},
{"type":"Feature","id":413,"geometry":{"type":"Point","coordinates":[120.369317,22.959547]},"properties":{"city":"臺南市","longitude":120.369317,"latitude":22.959547,"name":"崎頂"}},
{"type":"Feature","id":414,"geometry":{"type":"Point","coordinates":[120.347878,23.021375]},"properties":{"city":"臺南市","longitude":120.347878,"latitude":23.021375,"name":"虎頭埤"}},
{"type":"Feature","id":415,"geometry":{"type":"Point","coordinates":[120.298197,23.061614]},"properties":{"city":"臺南市","longitude":120.298197,"latitude":23.061614,"name":"新市"}},
{"type":"Feature","id":416,"geometry":{"type":"Point","coordinates":[120.293525,22.99175]},"properties":{"city":"臺南市","longitude":120.293525,"latitude":22.99175,"name":"媽廟"}},
{"type":"Feature","id":417,"geometry":{"type":"Point","coordinates":[120.385592,23.296581]},"properties":{"city":"臺南市","longitude":120.385592,"latitude":23.296581,"name":"東河"}},
{"type":"Feature","id":418,"geometry":{"type":"Point","coordinates":[120.256242,23.226933]},"properties":{"city":"臺南市","longitude":120.256242,"latitude":23.226933,"name":"下營"}},
{"type":"Feature","id":419,"geometry":{"type":"Point","coordinates":[120.145086,23.173039]},"properties":{"city":"臺南市","longitude":120.145086,"latitude":23.173039,"name":"佳里"}},
{"type":"Feature","id":420,"geometry":{"type":"Point","coordinates":[120.194228,23.010394]},"properties":{"city":"臺南市","longitude":120.194228,"latitude":23.010394,"name":"臺南市北區"}},
{"type":"Feature","id":421,"geometry":{"type":"Point","coordinates":[120.188378,22.961189]},"properties":{"city":"臺南市","longitude":120.188378,"latitude":22.961189,"name":"臺南市南區"}},
{"type":"Feature","id":422,"geometry":{"type":"Point","coordinates":[120.248611,23.183289]},"properties":{"city":"臺南市","longitude":120.248611,"latitude":23.183289,"name":"麻豆"}},
{"type":"Feature","id":423,"geometry":{"type":"Point","coordinates":[120.315422,23.193217]},"properties":{"city":"臺南市","longitude":120.315422,"latitude":23.193217,"name":"官田"}},
{"type":"Feature","id":424,"geometry":{"type":"Point","coordinates":[120.203108,23.125608]},"properties":{"city":"臺南市","longitude":120.203108,"latitude":23.125608,"name":"西港"}},
{"type":"Feature","id":425,"geometry":{"type":"Point","coordinates":[120.227839,23.102614]},"properties":{"city":"臺南市","longitude":120.227839,"latitude":23.102614,"name":"安定"}},
{"type":"Feature","id":426,"geometry":{"type":"Point","coordinates":[120.257689,22.968258]},"properties":{"city":"臺南市","longitude":120.257689,"latitude":22.968258,"name":"仁德"}},
{"type":"Feature","id":427,"geometry":{"type":"Point","coordinates":[120.327797,22.963017]},"properties":{"city":"臺南市","longitude":120.327797,"latitude":22.963017,"name":"關廟"}},
{"type":"Feature","id":428,"geometry":{"type":"Point","coordinates":[120.363253,23.0757]},"properties":{"city":"臺南市","longitude":120.363253,"latitude":23.0757,"name":"山上"}},
{"type":"Feature","id":429,"geometry":{"type":"Point","coordinates":[120.152181,22.993161]},"properties":{"city":"臺南市","longitude":120.152181,"latitude":22.993161,"name":"安平"}},
{"type":"Feature","id":430,"geometry":{"type":"Point","coordinates":[120.408522,23.056758]},"properties":{"city":"臺南市","longitude":120.408522,"latitude":23.056758,"name":"左鎮"}},
{"type":"Feature","id":431,"geometry":{"type":"Point","coordinates":[120.414428,23.347467]},"properties":{"city":"臺南市","longitude":120.414428,"latitude":23.347467,"name":"白河"}},
{"type":"Feature","id":432,"geometry":{"type":"Point","coordinates":[120.182167,23.230347]},"properties":{"city":"臺南市","longitude":120.182167,"latitude":23.230347,"name":"學甲"}},
{"type":"Feature","id":433,"geometry":{"type":"Point","coordinates":[120.247622,23.272603]},"properties":{"city":"臺南市","longitude":120.247622,"latitude":23.272603,"name":"鹽水"}},
{"type":"Feature","id":434,"geometry":{"type":"Point","coordinates":[120.508025,23.331169]},"properties":{"city":"臺南市","longitude":120.508025,"latitude":23.331169,"name":"關子嶺"}},
{"type":"Feature","id":435,"geometry":{"type":"Point","coordinates":[120.316681,23.310689]},"properties":{"city":"臺南市","longitude":120.316681,"latitude":23.310689,"name":"新營"}},
{"type":"Feature","id":436,"geometry":{"type":"Point","coordinates":[120.362306,23.366342]},"properties":{"city":"臺南市","longitude":120.362306,"latitude":23.366342,"name":"後壁"}},
{"type":"Feature","id":437,"geometry":{"type":"Point","coordinates":[120.135761,23.214972]},"properties":{"city":"臺南市","longitude":120.135761,"latitude":23.214972,"name":"將軍"}},
{"type":"Feature","id":438,"geometry":{"type":"Point","coordinates":[120.125481,23.267772]},"properties":{"city":"臺南市","longitude":120.125481,"latitude":23.267772,"name":"北門"}},
{"type":"Feature","id":439,"geometry":{"type":"Point","coordinates":[120.477331,23.386047]},"properties":{"city":"臺南市","longitude":120.477331,"latitude":23.386047,"name":"鹿寮"}},
{"type":"Feature","id":440,"geometry":{"type":"Point","coordinates":[120.086253,23.147289]},"properties":{"city":"臺南市","longitude":120.086253,"latitude":23.147289,"name":"七股"}},
{"type":"Feature","id":441,"geometry":{"type":"Point","coordinates":[120.375253,23.253328]},"properties":{"city":"臺南市","longitude":120.375253,"latitude":23.253328,"name":"柳營"}},
{"type":"Feature","id":442,"geometry":{"type":"Point","coordinates":[120.079675,23.120803]},"properties":{"city":"臺南市","longitude":120.079675,"latitude":23.120803,"name":"水試所七股"}},
{"type":"Feature","id":443,"geometry":{"type":"Point","coordinates":[120.8132417,23.50820833]},"properties":{"city":"嘉義縣","longitude":120.8132417,"latitude":23.50820833,"name":"阿里山"}},
{"type":"Feature","id":444,"geometry":{"type":"Point","coordinates":[120.279361,23.360694]},"properties":{"city":"嘉義縣","longitude":120.279361,"latitude":23.360694,"name":"義竹分場"}},
{"type":"Feature","id":445,"geometry":{"type":"Point","coordinates":[120.283061,23.416869]},"properties":{"city":"嘉義縣","longitude":120.283061,"latitude":23.416869,"name":"嘉義分場"}},
{"type":"Feature","id":446,"geometry":{"type":"Point","coordinates":[120.582017,23.324361]},"properties":{"city":"嘉義縣","longitude":120.582017,"latitude":23.324361,"name":"馬頭山"}},
{"type":"Feature","id":447,"geometry":{"type":"Point","coordinates":[120.248047,23.369892]},"properties":{"city":"嘉義縣","longitude":120.248047,"latitude":23.369892,"name":"東後寮"}},
{"type":"Feature","id":448,"geometry":{"type":"Point","coordinates":[120.699253,23.493903]},"properties":{"city":"嘉義縣","longitude":120.699253,"latitude":23.493903,"name":"奮起湖"}},
{"type":"Feature","id":449,"geometry":{"type":"Point","coordinates":[120.522903,23.425381]},"properties":{"city":"嘉義縣","longitude":120.522903,"latitude":23.425381,"name":"中埔"}},
{"type":"Feature","id":450,"geometry":{"type":"Point","coordinates":[120.239019,23.434628]},"properties":{"city":"嘉義縣","longitude":120.239019,"latitude":23.434628,"name":"朴子"}},
{"type":"Feature","id":451,"geometry":{"type":"Point","coordinates":[120.403556,23.604119]},"properties":{"city":"嘉義縣","longitude":120.403556,"latitude":23.604119,"name":"溪口"}},
{"type":"Feature","id":452,"geometry":{"type":"Point","coordinates":[120.458397,23.600606]},"properties":{"city":"嘉義縣","longitude":120.458397,"latitude":23.600606,"name":"大林"}},
{"type":"Feature","id":453,"geometry":{"type":"Point","coordinates":[120.331439,23.455047]},"properties":{"city":"嘉義縣","longitude":120.331439,"latitude":23.455047,"name":"太保"}},
{"type":"Feature","id":454,"geometry":{"type":"Point","coordinates":[120.388894,23.419719]},"properties":{"city":"嘉義縣","longitude":120.388894,"latitude":23.419719,"name":"水上"}},
{"type":"Feature","id":455,"geometry":{"type":"Point","coordinates":[120.555497,23.526167]},"properties":{"city":"嘉義縣","longitude":120.555497,"latitude":23.526167,"name":"竹崎"}},
{"type":"Feature","id":456,"geometry":{"type":"Point","coordinates":[120.153831,23.458911]},"properties":{"city":"嘉義縣","longitude":120.153831,"latitude":23.458911,"name":"東石"}},
{"type":"Feature","id":457,"geometry":{"type":"Point","coordinates":[120.554144,23.464644]},"properties":{"city":"嘉義縣","longitude":120.554144,"latitude":23.464644,"name":"番路"}},
{"type":"Feature","id":458,"geometry":{"type":"Point","coordinates":[120.290611,23.492864]},"properties":{"city":"嘉義縣","longitude":120.290611,"latitude":23.492864,"name":"六腳"}},
{"type":"Feature","id":459,"geometry":{"type":"Point","coordinates":[120.167778,23.380864]},"properties":{"city":"嘉義縣","longitude":120.167778,"latitude":23.380864,"name":"布袋"}},
{"type":"Feature","id":460,"geometry":{"type":"Point","coordinates":[120.428444,23.551742]},"properties":{"city":"嘉義縣","longitude":120.428444,"latitude":23.551742,"name":"民雄"}},
{"type":"Feature","id":461,"geometry":{"type":"Point","coordinates":[120.555581,23.585386]},"properties":{"city":"嘉義縣","longitude":120.555581,"latitude":23.585386,"name":"梅山"}},
{"type":"Feature","id":462,"geometry":{"type":"Point","coordinates":[120.308333,23.411322]},"properties":{"city":"嘉義縣","longitude":120.308333,"latitude":23.411322,"name":"鹿草"}},
{"type":"Feature","id":463,"geometry":{"type":"Point","coordinates":[120.345719,23.553261]},"properties":{"city":"嘉義縣","longitude":120.345719,"latitude":23.553261,"name":"新港"}},
{"type":"Feature","id":464,"geometry":{"type":"Point","coordinates":[120.664767,23.299075]},"properties":{"city":"嘉義縣","longitude":120.664767,"latitude":23.299075,"name":"茶山"}},
{"type":"Feature","id":465,"geometry":{"type":"Point","coordinates":[120.716647,23.389125]},"properties":{"city":"嘉義縣","longitude":120.716647,"latitude":23.389125,"name":"里佳"}},
{"type":"Feature","id":466,"geometry":{"type":"Point","coordinates":[120.749517,23.453994]},"properties":{"city":"嘉義縣","longitude":120.749517,"latitude":23.453994,"name":"達邦"}},
{"type":"Feature","id":467,"geometry":{"type":"Point","coordinates":[120.641658,23.241856]},"properties":{"city":"嘉義縣","longitude":120.641658,"latitude":23.241856,"name":"表湖"}},
{"type":"Feature","id":468,"geometry":{"type":"Point","coordinates":[120.683331,23.338017]},"properties":{"city":"嘉義縣","longitude":120.683331,"latitude":23.338017,"name":"新美"}},
{"type":"Feature","id":469,"geometry":{"type":"Point","coordinates":[120.436867,23.610292]},"properties":{"city":"嘉義縣","longitude":120.436867,"latitude":23.610292,"name":"國一N250K"}},
{"type":"Feature","id":470,"geometry":{"type":"Point","coordinates":[120.16294,23.41582]},"properties":{"city":"嘉義縣","longitude":120.16294,"latitude":23.41582,"name":"西濱S267K"}},
{"type":"Feature","id":471,"geometry":{"type":"Point","coordinates":[120.408111,23.58565]},"properties":{"city":"嘉義縣","longitude":120.408111,"latitude":23.58565,"name":"溪口農場"}},
{"type":"Feature","id":472,"geometry":{"type":"Point","coordinates":[120.4329056,23.495925]},"properties":{"city":"嘉義市","longitude":120.4329056,"latitude":23.495925,"name":"嘉義"}},
{"type":"Feature","id":473,"geometry":{"type":"Point","coordinates":[120.460517,23.457656]},"properties":{"city":"嘉義市","longitude":120.460517,"latitude":23.457656,"name":"嘉義市東區"}},
{"type":"Feature","id":474,"geometry":{"type":"Point","coordinates":[120.473806,23.485028]},"properties":{"city":"嘉義市","longitude":120.473806,"latitude":23.485028,"name":"嘉義農試"}},
{"type":"Feature","id":475,"geometry":{"type":"Point","coordinates":[120.684075,24.14573611]},"properties":{"city":"臺中市","longitude":120.684075,"latitude":24.14573611,"name":"臺中"}},
{"type":"Feature","id":476,"geometry":{"type":"Point","coordinates":[120.5233806,24.25600278]},"properties":{"city":"臺中市","longitude":120.5233806,"latitude":24.25600278,"name":"梧棲"}},
{"type":"Feature","id":477,"geometry":{"type":"Point","coordinates":[120.572117,24.15295]},"properties":{"city":"臺中市","longitude":120.572117,"latitude":24.15295,"name":"大肚"}},
{"type":"Feature","id":478,"geometry":{"type":"Point","coordinates":[121.236339,24.388594]},"properties":{"city":"臺中市","longitude":121.236339,"latitude":24.388594,"name":"雪山圈谷"}},
{"type":"Feature","id":479,"geometry":{"type":"Point","coordinates":[120.777644,24.276061]},"properties":{"city":"臺中市","longitude":120.777644,"latitude":24.276061,"name":"石岡"}},
{"type":"Feature","id":480,"geometry":{"type":"Point","coordinates":[120.903319,24.248517]},"properties":{"city":"臺中市","longitude":120.903319,"latitude":24.248517,"name":"中坑"}},
{"type":"Feature","id":481,"geometry":{"type":"Point","coordinates":[121.4203,24.381675]},"properties":{"city":"臺中市","longitude":121.4203,"latitude":24.381675,"name":"審馬陣"}},
{"type":"Feature","id":482,"geometry":{"type":"Point","coordinates":[121.444667,24.363714]},"properties":{"city":"臺中市","longitude":121.444667,"latitude":24.363714,"name":"南湖圈谷"}},
{"type":"Feature","id":483,"geometry":{"type":"Point","coordinates":[120.833047,24.246428]},"properties":{"city":"臺中市","longitude":120.833047,"latitude":24.246428,"name":"東勢"}},
{"type":"Feature","id":484,"geometry":{"type":"Point","coordinates":[121.243669,24.247522]},"properties":{"city":"臺中市","longitude":121.243669,"latitude":24.247522,"name":"梨山"}},
{"type":"Feature","id":485,"geometry":{"type":"Point","coordinates":[120.640403,24.347667]},"properties":{"city":"臺中市","longitude":120.640403,"latitude":24.347667,"name":"大甲"}},
{"type":"Feature","id":486,"geometry":{"type":"Point","coordinates":[120.722289,24.173142]},"properties":{"city":"臺中市","longitude":120.722289,"latitude":24.173142,"name":"大坑"}},
{"type":"Feature","id":487,"geometry":{"type":"Point","coordinates":[120.751061,24.103556]},"properties":{"city":"臺中市","longitude":120.751061,"latitude":24.103556,"name":"中竹林"}},
{"type":"Feature","id":488,"geometry":{"type":"Point","coordinates":[120.658314,24.272481]},"properties":{"city":"臺中市","longitude":120.658314,"latitude":24.272481,"name":"神岡"}},
{"type":"Feature","id":489,"geometry":{"type":"Point","coordinates":[120.588025,24.345061]},"properties":{"city":"臺中市","longitude":120.588025,"latitude":24.345061,"name":"大安"}},
{"type":"Feature","id":490,"geometry":{"type":"Point","coordinates":[120.729725,24.310436]},"properties":{"city":"臺中市","longitude":120.729725,"latitude":24.310436,"name":"后里"}},
{"type":"Feature","id":491,"geometry":{"type":"Point","coordinates":[120.720692,24.254322]},"properties":{"city":"臺中市","longitude":120.720692,"latitude":24.254322,"name":"豐原"}},
{"type":"Feature","id":492,"geometry":{"type":"Point","coordinates":[120.701378,24.092464]},"properties":{"city":"臺中市","longitude":120.701378,"latitude":24.092464,"name":"大里"}},
{"type":"Feature","id":493,"geometry":{"type":"Point","coordinates":[120.703933,24.213106]},"properties":{"city":"臺中市","longitude":120.703933,"latitude":24.213106,"name":"潭子"}},
{"type":"Feature","id":494,"geometry":{"type":"Point","coordinates":[120.562242,24.312297]},"properties":{"city":"臺中市","longitude":120.562242,"latitude":24.312297,"name":"清水"}},
{"type":"Feature","id":495,"geometry":{"type":"Point","coordinates":[120.705686,24.347817]},"properties":{"city":"臺中市","longitude":120.705686,"latitude":24.347817,"name":"外埔"}},
{"type":"Feature","id":496,"geometry":{"type":"Point","coordinates":[120.528972,24.184536]},"properties":{"city":"臺中市","longitude":120.528972,"latitude":24.184536,"name":"龍井"}},
{"type":"Feature","id":497,"geometry":{"type":"Point","coordinates":[120.624103,24.107058]},"properties":{"city":"臺中市","longitude":120.624103,"latitude":24.107058,"name":"烏日"}},
{"type":"Feature","id":498,"geometry":{"type":"Point","coordinates":[120.641275,24.179494]},"properties":{"city":"臺中市","longitude":120.641275,"latitude":24.179494,"name":"西屯"}},
{"type":"Feature","id":499,"geometry":{"type":"Point","coordinates":[120.637969,24.137006]},"properties":{"city":"臺中市","longitude":120.637969,"latitude":24.137006,"name":"南屯"}},
{"type":"Feature","id":500,"geometry":{"type":"Point","coordinates":[120.815806,24.200172]},"properties":{"city":"臺中市","longitude":120.815806,"latitude":24.200172,"name":"新社"}},
{"type":"Feature","id":501,"geometry":{"type":"Point","coordinates":[120.62445,24.215281]},"properties":{"city":"臺中市","longitude":120.62445,"latitude":24.215281,"name":"大雅"}},
{"type":"Feature","id":502,"geometry":{"type":"Point","coordinates":[121.303808,24.432739]},"properties":{"city":"臺中市","longitude":121.303808,"latitude":24.432739,"name":"桃山"}},
{"type":"Feature","id":503,"geometry":{"type":"Point","coordinates":[121.268675,24.388792]},"properties":{"city":"臺中市","longitude":121.268675,"latitude":24.388792,"name":"雪山東峰"}},
{"type":"Feature","id":504,"geometry":{"type":"Point","coordinates":[120.947617,24.273503]},"properties":{"city":"臺中市","longitude":120.947617,"latitude":24.273503,"name":"烏石坑"}},
{"type":"Feature","id":505,"geometry":{"type":"Point","coordinates":[120.6552,24.2049]},"properties":{"city":"臺中市","longitude":120.6552,"latitude":24.2049,"name":"國一N174K"}},
{"type":"Feature","id":506,"geometry":{"type":"Point","coordinates":[120.695976,24.295534]},"properties":{"city":"臺中市","longitude":120.695976,"latitude":24.295534,"name":"國一S162K"}},
{"type":"Feature","id":507,"geometry":{"type":"Point","coordinates":[120.688271,24.237116]},"properties":{"city":"臺中市","longitude":120.688271,"latitude":24.237116,"name":"國一S169K"}},
{"type":"Feature","id":508,"geometry":{"type":"Point","coordinates":[120.585747,24.118546]},"properties":{"city":"臺中市","longitude":120.585747,"latitude":24.118546,"name":"國一S188K"}},
{"type":"Feature","id":509,"geometry":{"type":"Point","coordinates":[120.660919,24.066147]},"properties":{"city":"臺中市","longitude":120.660919,"latitude":24.066147,"name":"國三N208K"}},
{"type":"Feature","id":510,"geometry":{"type":"Point","coordinates":[120.614471,24.308519]},"properties":{"city":"臺中市","longitude":120.614471,"latitude":24.308519,"name":"國三S168K"}},
{"type":"Feature","id":511,"geometry":{"type":"Point","coordinates":[120.593079,24.27397]},"properties":{"city":"臺中市","longitude":120.593079,"latitude":24.27397,"name":"國三S173K"}},
{"type":"Feature","id":512,"geometry":{"type":"Point","coordinates":[120.589058,24.226721]},"properties":{"city":"臺中市","longitude":120.589058,"latitude":24.226721,"name":"國三S178K"}},
{"type":"Feature","id":513,"geometry":{"type":"Point","coordinates":[120.643135,24.296465]},"properties":{"city":"臺中市","longitude":120.643135,"latitude":24.296465,"name":"國四E5K"}},
{"type":"Feature","id":514,"geometry":{"type":"Point","coordinates":[121.310675,24.354605]},"properties":{"city":"臺中市","longitude":121.310675,"latitude":24.354605,"name":"武陵"}},
{"type":"Feature","id":515,"geometry":{"type":"Point","coordinates":[120.688133,24.031261]},"properties":{"city":"臺中市","longitude":120.688133,"latitude":24.031261,"name":"農業試驗所"}},
{"type":"Feature","id":516,"geometry":{"type":"Point","coordinates":[120.800917,24.225972]},"properties":{"city":"臺中市","longitude":120.800917,"latitude":24.225972,"name":"種苗繁殖"}},
{"type":"Feature","id":517,"geometry":{"type":"Point","coordinates":[120.581287,23.873802]},"properties":{"city":"彰化縣","longitude":120.581287,"latitude":23.873802,"name":"田中"}},
{"type":"Feature","id":518,"geometry":{"type":"Point","coordinates":[120.556667,24.081389]},"properties":{"city":"彰化縣","longitude":120.556667,"latitude":24.081389,"name":"彰師大"}},
{"type":"Feature","id":519,"geometry":{"type":"Point","coordinates":[120.6213,24.015678]},"properties":{"city":"彰化縣","longitude":120.6213,"latitude":24.015678,"name":"芬園"}},
{"type":"Feature","id":520,"geometry":{"type":"Point","coordinates":[120.430481,24.0753]},"properties":{"city":"彰化縣","longitude":120.430481,"latitude":24.0753,"name":"鹿港"}},
{"type":"Feature","id":521,"geometry":{"type":"Point","coordinates":[120.585597,23.946503]},"properties":{"city":"彰化縣","longitude":120.585597,"latitude":23.946503,"name":"員林"}},
{"type":"Feature","id":522,"geometry":{"type":"Point","coordinates":[120.479122,23.94835]},"properties":{"city":"彰化縣","longitude":120.479122,"latitude":23.94835,"name":"溪湖"}},
{"type":"Feature","id":523,"geometry":{"type":"Point","coordinates":[120.499083,23.851597]},"properties":{"city":"彰化縣","longitude":120.499083,"latitude":23.851597,"name":"溪州"}},
{"type":"Feature","id":524,"geometry":{"type":"Point","coordinates":[120.376069,23.903319]},"properties":{"city":"彰化縣","longitude":120.376069,"latitude":23.903319,"name":"二林"}},
{"type":"Feature","id":525,"geometry":{"type":"Point","coordinates":[120.320922,23.852481]},"properties":{"city":"彰化縣","longitude":120.320922,"latitude":23.852481,"name":"大城"}},
{"type":"Feature","id":526,"geometry":{"type":"Point","coordinates":[120.382461,23.846611]},"properties":{"city":"彰化縣","longitude":120.382461,"latitude":23.846611,"name":"竹塘"}},
{"type":"Feature","id":527,"geometry":{"type":"Point","coordinates":[120.574608,23.875247]},"properties":{"city":"彰化縣","longitude":120.574608,"latitude":23.875247,"name":"高鐵彰化"}},
{"type":"Feature","id":528,"geometry":{"type":"Point","coordinates":[120.437669,24.041289]},"properties":{"city":"彰化縣","longitude":120.437669,"latitude":24.041289,"name":"福興"}},
{"type":"Feature","id":529,"geometry":{"type":"Point","coordinates":[120.503869,24.03405]},"properties":{"city":"彰化縣","longitude":120.503869,"latitude":24.03405,"name":"秀水"}},
{"type":"Feature","id":530,"geometry":{"type":"Point","coordinates":[120.431683,24.000394]},"properties":{"city":"彰化縣","longitude":120.431683,"latitude":24.000394,"name":"埔鹽"}},
{"type":"Feature","id":531,"geometry":{"type":"Point","coordinates":[120.525456,23.947633]},"properties":{"city":"彰化縣","longitude":120.525456,"latitude":23.947633,"name":"埔心"}},
{"type":"Feature","id":532,"geometry":{"type":"Point","coordinates":[120.509389,23.901669]},"properties":{"city":"彰化縣","longitude":120.509389,"latitude":23.901669,"name":"田尾"}},
{"type":"Feature","id":533,"geometry":{"type":"Point","coordinates":[120.452806,23.866003]},"properties":{"city":"彰化縣","longitude":120.452806,"latitude":23.866003,"name":"埤頭"}},
{"type":"Feature","id":534,"geometry":{"type":"Point","coordinates":[120.514222,23.877586]},"properties":{"city":"彰化縣","longitude":120.514222,"latitude":23.877586,"name":"北斗"}},
{"type":"Feature","id":535,"geometry":{"type":"Point","coordinates":[120.5862,23.897647]},"properties":{"city":"彰化縣","longitude":120.5862,"latitude":23.897647,"name":"社頭"}},
{"type":"Feature","id":536,"geometry":{"type":"Point","coordinates":[120.320025,23.922303]},"properties":{"city":"彰化縣","longitude":120.320025,"latitude":23.922303,"name":"芳苑"}},
{"type":"Feature","id":537,"geometry":{"type":"Point","coordinates":[120.6173,23.810742]},"properties":{"city":"彰化縣","longitude":120.6173,"latitude":23.810742,"name":"二水"}},
{"type":"Feature","id":538,"geometry":{"type":"Point","coordinates":[120.484403,24.148933]},"properties":{"city":"彰化縣","longitude":120.484403,"latitude":24.148933,"name":"伸港"}},
{"type":"Feature","id":539,"geometry":{"type":"Point","coordinates":[120.443536,24.143358]},"properties":{"city":"彰化縣","longitude":120.443536,"latitude":24.143358,"name":"線西"}},
{"type":"Feature","id":540,"geometry":{"type":"Point","coordinates":[120.549461,24.030322]},"properties":{"city":"彰化縣","longitude":120.549461,"latitude":24.030322,"name":"花壇"}},
{"type":"Feature","id":541,"geometry":{"type":"Point","coordinates":[120.523056,24.063889]},"properties":{"city":"彰化縣","longitude":120.523056,"latitude":24.063889,"name":"國一N198K"}},
{"type":"Feature","id":542,"geometry":{"type":"Point","coordinates":[120.508092,23.988304]},"properties":{"city":"彰化縣","longitude":120.508092,"latitude":23.988304,"name":"國一S207K"}},
{"type":"Feature","id":543,"geometry":{"type":"Point","coordinates":[120.554482,24.107155]},"properties":{"city":"彰化縣","longitude":120.554482,"latitude":24.107155,"name":"國三N196K"}},
{"type":"Feature","id":544,"geometry":{"type":"Point","coordinates":[120.534389,24.003028]},"properties":{"city":"彰化縣","longitude":120.534389,"latitude":24.003028,"name":"臺中農改"}},
{"type":"Feature","id":545,"geometry":{"type":"Point","coordinates":[120.5215,24.139256]},"properties":{"city":"彰化縣","longitude":120.5215,"latitude":24.139256,"name":"國三N191K"}},
{"type":"Feature","id":546,"geometry":{"type":"Point","coordinates":[120.603256,24.092468]},"properties":{"city":"彰化縣","longitude":120.603256,"latitude":24.092468,"name":"國三S202K"}},
{"type":"Feature","id":547,"geometry":{"type":"Point","coordinates":[120.436986,24.089292]},"properties":{"city":"彰化縣","longitude":120.436986,"latitude":24.089292,"name":"水試所鹿港"}},
{"type":"Feature","id":548,"geometry":{"type":"Point","coordinates":[121.139639,23.978875]},"properties":{"city":"南投縣","longitude":121.139639,"latitude":23.978875,"name":"萬大發電廠"}},
{"type":"Feature","id":549,"geometry":{"type":"Point","coordinates":[120.9595222,23.48761389]},"properties":{"city":"南投縣","longitude":120.9595222,"latitude":23.48761389,"name":"玉山"}},
{"type":"Feature","id":550,"geometry":{"type":"Point","coordinates":[120.90805,23.881325]},"properties":{"city":"南投縣","longitude":120.90805,"latitude":23.881325,"name":"日月潭"}},
{"type":"Feature","id":551,"geometry":{"type":"Point","coordinates":[120.963364,23.903208]},"properties":{"city":"南投縣","longitude":120.963364,"latitude":23.903208,"name":"埔里分場"}},
{"type":"Feature","id":552,"geometry":{"type":"Point","coordinates":[120.913583,23.875611]},"properties":{"city":"南投縣","longitude":120.913583,"latitude":23.875611,"name":"魚池茶改"}},
{"type":"Feature","id":553,"geometry":{"type":"Point","coordinates":[120.7405,23.762528]},"properties":{"city":"南投縣","longitude":120.7405,"latitude":23.762528,"name":"凍頂茶改"}},
{"type":"Feature","id":554,"geometry":{"type":"Point","coordinates":[120.952425,23.972169]},"properties":{"city":"南投縣","longitude":120.952425,"latitude":23.972169,"name":"埔里"}},
{"type":"Feature","id":555,"geometry":{"type":"Point","coordinates":[120.766406,23.884447]},"properties":{"city":"南投縣","longitude":120.766406,"latitude":23.884447,"name":"中寮"}},
{"type":"Feature","id":556,"geometry":{"type":"Point","coordinates":[120.68085,23.973672]},"properties":{"city":"南投縣","longitude":120.68085,"latitude":23.973672,"name":"草屯"}},
{"type":"Feature","id":557,"geometry":{"type":"Point","coordinates":[121.273642,24.121322]},"properties":{"city":"南投縣","longitude":121.273642,"latitude":24.121322,"name":"昆陽"}},
{"type":"Feature","id":558,"geometry":{"type":"Point","coordinates":[120.843667,23.532742]},"properties":{"city":"南投縣","longitude":120.843667,"latitude":23.532742,"name":"神木村"}},
{"type":"Feature","id":559,"geometry":{"type":"Point","coordinates":[121.272547,24.143442]},"properties":{"city":"南投縣","longitude":121.272547,"latitude":24.143442,"name":"合歡山頂"}},
{"type":"Feature","id":560,"geometry":{"type":"Point","coordinates":[121.181808,24.033311]},"properties":{"city":"南投縣","longitude":121.181808,"latitude":24.033311,"name":"廬山"}},
{"type":"Feature","id":561,"geometry":{"type":"Point","coordinates":[120.851036,23.689694]},"properties":{"city":"南投縣","longitude":120.851036,"latitude":23.689694,"name":"信義"}},
{"type":"Feature","id":562,"geometry":{"type":"Point","coordinates":[120.787347,23.728081]},"properties":{"city":"南投縣","longitude":120.787347,"latitude":23.728081,"name":"鳳凰"}},
{"type":"Feature","id":563,"geometry":{"type":"Point","coordinates":[120.688156,23.761225]},"properties":{"city":"南投縣","longitude":120.688156,"latitude":23.761225,"name":"竹山"}},
{"type":"Feature","id":564,"geometry":{"type":"Point","coordinates":[120.849792,23.812553]},"properties":{"city":"南投縣","longitude":120.849792,"latitude":23.812553,"name":"水里"}},
{"type":"Feature","id":565,"geometry":{"type":"Point","coordinates":[120.94135,23.895703]},"properties":{"city":"南投縣","longitude":120.94135,"latitude":23.895703,"name":"魚池"}},
{"type":"Feature","id":566,"geometry":{"type":"Point","coordinates":[120.801467,23.828206]},"properties":{"city":"南投縣","longitude":120.801467,"latitude":23.828206,"name":"集集"}},
{"type":"Feature","id":567,"geometry":{"type":"Point","coordinates":[121.132206,24.022122]},"properties":{"city":"南投縣","longitude":121.132206,"latitude":24.022122,"name":"仁愛"}},
{"type":"Feature","id":568,"geometry":{"type":"Point","coordinates":[120.701447,23.837053]},"properties":{"city":"南投縣","longitude":120.701447,"latitude":23.837053,"name":"名間"}},
{"type":"Feature","id":569,"geometry":{"type":"Point","coordinates":[120.855072,24.037803]},"properties":{"city":"南投縣","longitude":120.855072,"latitude":24.037803,"name":"國姓"}},
{"type":"Feature","id":570,"geometry":{"type":"Point","coordinates":[120.687331,23.911469]},"properties":{"city":"南投縣","longitude":120.687331,"latitude":23.911469,"name":"南投"}},
{"type":"Feature","id":571,"geometry":{"type":"Point","coordinates":[121.173572,24.085272]},"properties":{"city":"南投縣","longitude":121.173572,"latitude":24.085272,"name":"梅峰"}},
{"type":"Feature","id":572,"geometry":{"type":"Point","coordinates":[121.091411,23.928228]},"properties":{"city":"南投縣","longitude":121.091411,"latitude":23.928228,"name":"萬大林道"}},
{"type":"Feature","id":573,"geometry":{"type":"Point","coordinates":[120.955994,23.470489]},"properties":{"city":"南投縣","longitude":120.955994,"latitude":23.470489,"name":"玉山風口"}},
{"type":"Feature","id":574,"geometry":{"type":"Point","coordinates":[121.295717,24.131764]},"properties":{"city":"南投縣","longitude":121.295717,"latitude":24.131764,"name":"小奇萊"}},
{"type":"Feature","id":575,"geometry":{"type":"Point","coordinates":[121.326456,24.109231]},"properties":{"city":"南投縣","longitude":121.326456,"latitude":24.109231,"name":"奇萊稜線"}},
{"type":"Feature","id":576,"geometry":{"type":"Point","coordinates":[120.662376,23.955116]},"properties":{"city":"南投縣","longitude":120.662376,"latitude":23.955116,"name":"國三N223K"}},
{"type":"Feature","id":577,"geometry":{"type":"Point","coordinates":[120.653214,24.00683]},"properties":{"city":"南投縣","longitude":120.653214,"latitude":24.00683,"name":"國三S217K"}},
{"type":"Feature","id":578,"geometry":{"type":"Point","coordinates":[120.72293,23.82137]},"properties":{"city":"南投縣","longitude":120.72293,"latitude":23.82137,"name":"消防署訓練中心"}},
{"type":"Feature","id":579,"geometry":{"type":"Point","coordinates":[120.712192,23.900689]},"properties":{"city":"南投縣","longitude":120.712192,"latitude":23.900689,"name":"南投服務區"}},
{"type":"Feature","id":580,"geometry":{"type":"Point","coordinates":[120.885278,23.918333]},"properties":{"city":"南投縣","longitude":120.885278,"latitude":23.918333,"name":"蓮華池"}},
{"type":"Feature","id":581,"geometry":{"type":"Point","coordinates":[121.308522,24.226944]},"properties":{"city":"南投縣","longitude":121.308522,"latitude":24.226944,"name":"畢祿溪站"}},
{"type":"Feature","id":582,"geometry":{"type":"Point","coordinates":[120.798194,23.670306]},"properties":{"city":"南投縣","longitude":120.798194,"latitude":23.670306,"name":"臺大溪頭"}},
{"type":"Feature","id":583,"geometry":{"type":"Point","coordinates":[120.888864,23.590856]},"properties":{"city":"南投縣","longitude":120.888864,"latitude":23.590856,"name":"臺大和社"}},
{"type":"Feature","id":584,"geometry":{"type":"Point","coordinates":[120.851117,23.689722]},"properties":{"city":"南投縣","longitude":120.851117,"latitude":23.689722,"name":"臺大內茅埔"}},
{"type":"Feature","id":585,"geometry":{"type":"Point","coordinates":[120.681556,23.756972]},"properties":{"city":"南投縣","longitude":120.681556,"latitude":23.756972,"name":"臺大竹山"}},
{"type":"Feature","id":586,"geometry":{"type":"Point","coordinates":[120.180394,23.589978]},"properties":{"city":"雲林縣","longitude":120.180394,"latitude":23.589978,"name":"口湖工作站"}},
{"type":"Feature","id":587,"geometry":{"type":"Point","coordinates":[120.477333,23.634556]},"properties":{"city":"雲林縣","longitude":120.477333,"latitude":23.634556,"name":"雲林分場"}},
{"type":"Feature","id":588,"geometry":{"type":"Point","coordinates":[120.217717,23.798783]},"properties":{"city":"雲林縣","longitude":120.217717,"latitude":23.798783,"name":"麥寮"}},
{"type":"Feature","id":589,"geometry":{"type":"Point","coordinates":[120.190522,23.717231]},"properties":{"city":"雲林縣","longitude":120.190522,"latitude":23.717231,"name":"臺西水試"}},
{"type":"Feature","id":590,"geometry":{"type":"Point","coordinates":[120.55239,23.63353]},"properties":{"city":"雲林縣","longitude":120.55239,"latitude":23.63353,"name":"古坑花卉中心"}},
{"type":"Feature","id":591,"geometry":{"type":"Point","coordinates":[120.423903,23.730628]},"properties":{"city":"雲林縣","longitude":120.423903,"latitude":23.730628,"name":"雲林臺大"}},
{"type":"Feature","id":592,"geometry":{"type":"Point","coordinates":[120.693461,23.59555]},"properties":{"city":"雲林縣","longitude":120.693461,"latitude":23.59555,"name":"草嶺"}},
{"type":"Feature","id":593,"geometry":{"type":"Point","coordinates":[120.318925,23.75555]},"properties":{"city":"雲林縣","longitude":120.318925,"latitude":23.75555,"name":"崙背"}},
{"type":"Feature","id":594,"geometry":{"type":"Point","coordinates":[120.227125,23.630414]},"properties":{"city":"雲林縣","longitude":120.227125,"latitude":23.630414,"name":"四湖"}},
{"type":"Feature","id":595,"geometry":{"type":"Point","coordinates":[120.169311,23.536267]},"properties":{"city":"雲林縣","longitude":120.169311,"latitude":23.536267,"name":"宜梧"}},
{"type":"Feature","id":596,"geometry":{"type":"Point","coordinates":[120.442036,23.719183]},"properties":{"city":"雲林縣","longitude":120.442036,"latitude":23.719183,"name":"虎尾"}},
{"type":"Feature","id":597,"geometry":{"type":"Point","coordinates":[120.395561,23.679019]},"properties":{"city":"雲林縣","longitude":120.395561,"latitude":23.679019,"name":"土庫"}},
{"type":"Feature","id":598,"geometry":{"type":"Point","coordinates":[120.541117,23.720575]},"properties":{"city":"雲林縣","longitude":120.541117,"latitude":23.720575,"name":"斗六"}},
{"type":"Feature","id":599,"geometry":{"type":"Point","coordinates":[120.291786,23.574056]},"properties":{"city":"雲林縣","longitude":120.291786,"latitude":23.574056,"name":"北港"}},
{"type":"Feature","id":600,"geometry":{"type":"Point","coordinates":[120.467383,23.8004]},"properties":{"city":"雲林縣","longitude":120.467383,"latitude":23.8004,"name":"西螺"}},
{"type":"Feature","id":601,"geometry":{"type":"Point","coordinates":[120.303619,23.690928]},"properties":{"city":"雲林縣","longitude":120.303619,"latitude":23.690928,"name":"褒忠"}},
{"type":"Feature","id":602,"geometry":{"type":"Point","coordinates":[120.408944,23.772797]},"properties":{"city":"雲林縣","longitude":120.408944,"latitude":23.772797,"name":"二崙"}},
{"type":"Feature","id":603,"geometry":{"type":"Point","coordinates":[120.431525,23.646064]},"properties":{"city":"雲林縣","longitude":120.431525,"latitude":23.646064,"name":"大埤"}},
{"type":"Feature","id":604,"geometry":{"type":"Point","coordinates":[120.478347,23.678725]},"properties":{"city":"雲林縣","longitude":120.478347,"latitude":23.678725,"name":"斗南"}},
{"type":"Feature","id":605,"geometry":{"type":"Point","coordinates":[120.609642,23.748675]},"properties":{"city":"雲林縣","longitude":120.609642,"latitude":23.748675,"name":"林內"}},
{"type":"Feature","id":606,"geometry":{"type":"Point","coordinates":[120.502372,23.761192]},"properties":{"city":"雲林縣","longitude":120.502372,"latitude":23.761192,"name":"莿桐"}},
{"type":"Feature","id":607,"geometry":{"type":"Point","coordinates":[120.559744,23.654292]},"properties":{"city":"雲林縣","longitude":120.559744,"latitude":23.654292,"name":"古坑"}},
{"type":"Feature","id":608,"geometry":{"type":"Point","coordinates":[120.315011,23.649797]},"properties":{"city":"雲林縣","longitude":120.315011,"latitude":23.649797,"name":"元長"}},
{"type":"Feature","id":609,"geometry":{"type":"Point","coordinates":[120.245956,23.572911]},"properties":{"city":"雲林縣","longitude":120.245956,"latitude":23.572911,"name":"水林"}},
{"type":"Feature","id":610,"geometry":{"type":"Point","coordinates":[120.2528,23.67495]},"properties":{"city":"雲林縣","longitude":120.2528,"latitude":23.67495,"name":"東勢"}},
{"type":"Feature","id":611,"geometry":{"type":"Point","coordinates":[120.197547,23.701544]},"properties":{"city":"雲林縣","longitude":120.197547,"latitude":23.701544,"name":"臺西"}},
{"type":"Feature","id":612,"geometry":{"type":"Point","coordinates":[120.229736,23.514319]},"properties":{"city":"雲林縣","longitude":120.229736,"latitude":23.514319,"name":"蔦松"}},
{"type":"Feature","id":613,"geometry":{"type":"Point","coordinates":[120.603417,23.68645]},"properties":{"city":"雲林縣","longitude":120.603417,"latitude":23.68645,"name":"棋山"}},
{"type":"Feature","id":614,"geometry":{"type":"Point","coordinates":[120.417944,23.737456]},"properties":{"city":"雲林縣","longitude":120.417944,"latitude":23.737456,"name":"高鐵雲林"}},
{"type":"Feature","id":615,"geometry":{"type":"Point","coordinates":[120.64061,23.77412]},"properties":{"city":"雲林縣","longitude":120.64061,"latitude":23.77412,"name":"國三N252K"}},
{"type":"Feature","id":616,"geometry":{"type":"Point","coordinates":[120.467926,23.74633]},"properties":{"city":"雲林縣","longitude":120.467926,"latitude":23.74633,"name":"國一N234K"}},
{"type":"Feature","id":617,"geometry":{"type":"Point","coordinates":[120.191686,23.716667]},"properties":{"city":"雲林縣","longitude":120.191686,"latitude":23.716667,"name":"水試所臺西"}},
{"type":"Feature","id":618,"geometry":{"type":"Point","coordinates":[120.17257,23.62337]},"properties":{"city":"雲林縣","longitude":120.17257,"latitude":23.62337,"name":"西濱S241K"}},
{"type":"Feature","id":619,"geometry":{"type":"Point","coordinates":[120.163433,23.676986]},"properties":{"city":"雲林縣","longitude":120.163433,"latitude":23.676986,"name":"四湖植物園"}},
{"type":"Feature","id":620,"geometry":{"type":"Point","coordinates":[120.367939,23.8068]},"properties":{"city":"雲林縣","longitude":120.367939,"latitude":23.8068,"name":"大庄合作社"}},
{"type":"Feature","id":621,"geometry":{"type":"Point","coordinates":[120.294783,23.753836]},"properties":{"city":"雲林縣","longitude":120.294783,"latitude":23.753836,"name":"麥寮合作社"}}
]}
